~VERSION INFORMATION
VERS.                  2.0 : CWLS LOG ASCII STANDARD VERSION 2.0
WRAP.                  NO  : DATA IS NOT WRAPPED
~Well Information Section
#MNEM.UNIT          VALUE/NAME                 DESCRIPTION
#----------------------------------------------------------------------
STRT.m                 636.7272 : START DEPTH
STOP.m                1627.9368 : STOP DEPTH
STEP.m                   0.1524 : STEP
NULL.                -999.25 : NULL VALUE
COMP.                                             : COMPANY
WELL.    WDU-5                                    : WELL
FLD .                                             : FIELD
LOC .           242698.6,       2583682.1         : LOCATION
CNTY.                                             : COUNTY
STAT.                                             : STATE
CTRY.                                             : COUNTRY
SRVC.    Jason                                    : SERVICE
DATE.                                             : DATE
API .                                             : API
~Curve Information Section
#MNEM.UNIT          API CODE                   DESCRIPTION
#----------------------------------------------------------------------
DEPTH.m                          : * MD (TRACK/INDEX)
TIME .ms                         : TIME 
VPVS .none                       : VP/VS
VS   .m/s                        : S-VELOCITY
DTS  .us/ft                      : S-SONIC
S-IMP.g/cm^3*m/s                 : S-IMPEDANCE
RESIS.ohm*m                      : RESISTIVITY
NPHI .none                       : POROSITY NEUTRON
VP   .m/s                        : P-VELOCITY
DT   .us/ft                      : P-SONIC
P-IMP.g/cm^3*m/s                 : P-IMPEDANCE
GR   .gAPI                       : GAMMA RAY
RHOB .g/cm^3                     : DENSITY
4FACIES.none                       : 4FACIES
3FACIES.none                       : SANDSHALECOAL
~Parameter Information Section
#MNEM.UNIT          API CODE                   DESCRIPTION
#----------------------------------------------------------------------
XCRD .m                242698.600            : WELL POSITION X-COORD
YCRD .m                2583682.100           : WELL POSITION Y-COORD
DATUM.m                82.960                : WELL DATUM
~Other Information Section
#----------------------------------------------------------------------
# Data exported from Jason, (C) Jason, 2015
# Input file: 2_WELLS_RPM_Pred/WDU-5.wll
#----------------------------------------------------------------------
~A DEPTH        TIME           VPVS           VS             DTS            S-IMP          RESIS          NPHI           VP             DT             P-IMP          GR             RHOB           4FACIES        3FACIES        
# ...
1410.3096      1312.3713      2.1269117      1500.4996      203.13537      3724.6145      -999.25        0.5097         3193.0774      95.456502      7930.0075      75.7202        2.4835         2              1              
1410.4620      1312.4981      2.1348362      1508.2967      202.0824       3718.5793      -999.25        0.51120001     3225.7107      94.490804      7945.5705      75.785103      2.4632         2              1              
1410.6144      1312.6248      2.1486665      1502.9867      202.79844      3695.509       -999.25        0.51770002     3236.7305      94.169103      7956.5305      75.682098      2.4582         2              1              
1410.7668      1312.7516      2.1558004      1482.914       205.54909      3638.85        -999.25        0.52700001     3193.8069      95.434698      7842.393       73.975601      2.4555         2              1              
1410.9192      1312.8784      2.1432226      1457.1222      209.1874       3545.8758      -999.25        0.52899998     3124.5771      97.549197      7603.6585      72.632797      2.4335         2              1              
1411.0716      1313.0052      2.1379514      1427.8796      213.47669      3434.2258      -999.25        0.53799999     3055.4646      99.755696      7346.559       73.920197      2.4043999      3              1              
1411.2240      1313.132       2.1282873      1401.1695      217.53912      3342.5238      -999.25        0.5478         2972.165       102.5515       7090.3975      76.507599      2.3856001      3              2              
1411.3764      1313.2588      2.0858046      1368.0031      222.83095      3246.6357      -999.25        0.55239999     2870.7268      106.1752       6809.364       78.515297      2.372          3              2              
1411.5288      1313.3856      2.1200859      1313.544       232.11767      3092.5077      -999.25        0.55360001     2781.1387      109.5954       6547.635       80.2584        2.3543         3              2              
1411.6812      1313.5123      2.1666782      1258.7184      242.19347      2940.0774      -999.25        0.55409998     2722.5151      111.9553       6359.5225      82.756897      2.3358999      3              2              
1411.8336      1313.6391      2.1947746      1218.0764      250.2552       2826.5295      -999.25        0.55409998     2673.5505      114.0057       6205.3105      85.259499      2.321          3              2              
1411.9860      1313.7659      2.2063271      1178.3697      258.70154      2722.3214      -999.25        0.55430001     2603.2947      117.0824       6007.1025      85.780502      2.3075         3              2              
1412.1384      1313.8927      2.2289424      1117.8666      272.81797      2548.61        -999.25        0.5553         2510.2825      121.4206       5732.23        83.2752        2.2835         3              2              
1412.2908      1314.0195      2.3138963      1047.6743      291.06266      2304.7771      -999.25        0.55769998     2403.3306      126.824        5296.7         78.180901      2.2038999      0              2              
1412.4432      1314.1463      2.3401644      956.09998      319.32409      1981.4971      -999.25        0.5636         2298.0532      132.634        4749.3865      70.966003      2.0667         0              0              
1412.5956      1314.273       2.6969349      829.71151      368.67913      1580.5586      -999.25        0.57010001     2204.3301      138.2733       4193.5177      61.897301      1.9024         0              0              
1412.7480      1314.4255      2.8826784      742.80446      410.61552      1289.0678      -999.25        0.57679999     2125.2917      143.4156       3693.332       51.618698      1.7378         0              0              
1412.9004      1314.5829      2.9367344      703.84512      433.13091      1101.4154      -999.25        0.58389997     2062.7737      147.76221      3224.5278      41.4767        1.5632         0              0              
1413.0528      1314.7402      2.9771974      680.5079       447.94734      953.4947       -999.25        0.59320003     2024.8845      150.52711      2832.611       32.406101      1.3989         0              0              
1413.2052      1314.8976      3.0300644      662.83703      459.87525      846.29223      -999.25        0.6027         2007.5123      151.8297       2556.7677      24.856899      1.2736         0              0              
1413.3576      1315.0549      3.0707368      650.90137      468.28608      783.861        -999.25        0.61320001     1996.3871      152.6758       2398.659       19.337799      1.2015         0              0              
1413.5100      1315.2123      3.0813583      646.2494       471.64517      760.98787      -999.25        0.62279999     1988.5347      153.2787       2339.511       16.1908        1.1765         0              0              
1413.6624      1315.3696      3.0756934      646.32962      471.58638      760.08888      -999.25        0.63           1987.4453      153.36271      2337.2357      14.9328        1.176          0              0              
1413.8148      1315.527       3.0697127      647.70677      470.58352      763.54526      -999.25        0.63440001     1989.0549      153.2386       2345.2945      14.4313        1.1791         0              0              
1413.9672      1315.6843      3.0688512      649.06751      469.59699      765.00159      -999.25        0.63660002     1990.1499      153.1543       2346.1878      13.9779        1.1789         0              0              
1414.1196      1315.8417      3.0781915      652.21072      467.33671      768.20313      -999.25        0.63859999     2007.146       151.85741      2364.418       13.626         1.178          0              0              
1414.2720      1315.999       3.1010629      658.00379      463.2253       775.48098      -999.25        0.64270002     2040.2112      149.3963       2404.3888      13.8282        1.1785         0              0              
1414.4244      1316.1564      3.1143957      664.24682      458.86966      788.05413      -999.25        0.64380002     2069.8154      147.25951      2451.9032      14.7466        1.1846         0              0              
1414.5768      1316.3137      3.1324308      673.05815      452.87366      825.33502      -999.25        0.6329         2103.1045      144.9286       2573.3587      16.791599      1.2236         0              0              
1414.7292      1316.4711      3.1297027      688.01042      443.05398      915.68203      -999.25        0.61699998     2153.105       141.563        2851.7875      21.6336        1.3245         0              0              
1414.8816      1316.6105      3.096488       709.66156      429.55584      1059.7604      -999.25        0.6056         2194.4082      138.8985       3279.7625      31.026699      1.4946         0              0              
1415.0340      1316.7441      2.9979088      772.63603      395.3659       1296.3727      -999.25        0.5927         2245.5305      135.7363       3766.8775      43.9492        1.6775         0              0              
1415.1864      1316.8777      2.5575142      891.68578      342.87504      1663.404       -999.25        0.5675         2339.8206      130.2664       4352.066       57.380901      1.86           0              0              
1415.3388      1317.0113      2.4452186      996.45781      306.13923      2042.9278      -999.25        0.5402         2417.0334      126.105        4945.734       69.254997      2.0462         3              0              
1415.4912      1317.1449      2.2466367      1088.2108      280.37685      2405.8196      -999.25        0.52579999     2455.1025      124.1496       5440.2615      79.5485        2.2158999      3              2              
1415.6436      1317.2784      2.1587458      1170.9786      260.41952      2710.6872      -999.25        0.51719999     2529.532       120.4966       5857.8905      87.914101      2.3158         3              2              
