~VERSION INFORMATION
VERS.                  2.0 : CWLS LOG ASCII STANDARD VERSION 2.0
WRAP.                  NO  : DATA IS NOT WRAPPED
~Well Information Section
#MNEM.UNIT          VALUE/NAME                 DESCRIPTION
#----------------------------------------------------------------------
STRT.m                 636.7272 : START DEPTH
STOP.m                1627.9368 : STOP DEPTH
STEP.m                   0.1524 : STEP
NULL.                -999.25 : NULL VALUE
COMP.                                             : COMPANY
WELL.    WDU-5                                    : WELL
FLD .                                             : FIELD
LOC .           242698.6,       2583682.1         : LOCATION
CNTY.                                             : COUNTY
STAT.                                             : STATE
CTRY.                                             : COUNTRY
SRVC.    Jason                                    : SERVICE
DATE.                                             : DATE
API .                                             : API
~Curve Information Section
#MNEM.UNIT          API CODE                   DESCRIPTION
#----------------------------------------------------------------------
DEPTH.m                          : * MD (TRACK/INDEX)
TIME .ms                         : TIME 
VPVS .none                       : VP/VS
VS   .m/s                        : S-VELOCITY
DTS  .us/ft                      : S-SONIC
S-IMP.g/cm^3*m/s                 : S-IMPEDANCE
RESIS.ohm*m                      : RESISTIVITY
NPHI .none                       : POROSITY NEUTRON
VP   .m/s                        : P-VELOCITY
DT   .us/ft                      : P-SONIC
P-IMP.g/cm^3*m/s                 : P-IMPEDANCE
GR   .gAPI                       : GAMMA RAY
RHOB .g/cm^3                     : DENSITY
4FACIES.none                       : 4FACIES
3FACIES.none                       : SANDSHALECOAL
~Parameter Information Section
#MNEM.UNIT          API CODE                   DESCRIPTION
#----------------------------------------------------------------------
XCRD .m                242698.600            : WELL POSITION X-COORD
YCRD .m                2583682.100           : WELL POSITION Y-COORD
DATUM.m                82.960                : WELL DATUM
~Other Information Section
#----------------------------------------------------------------------
# Data exported from Jason, (C) Jason, 2015
# Input file: 2_WELLS_RPM_Pred/WDU-5.wll
#----------------------------------------------------------------------
~A DEPTH        TIME           VPVS           VS             DTS            S-IMP          RESIS          NPHI           VP             DT             P-IMP          GR             RHOB           4FACIES        3FACIES        
# ...
1432.2552      1329.4028      2.1360259      1211.7809      251.53209      2990.9688      -999.25        0.51929998     2583.25        117.9909       6379.0775      110.6195       2.4693999      3              2              
1432.4076      1329.5155      2.1395462      1220.177       249.81154      3062.232       -999.25        0.52079999     2593.9189      117.5056       6516.703       114.8531       2.5123         3              2              
1432.5600      1329.6282      2.1018878      1267.2365      240.61901      3221.5942      -999.25        0.51950002     2658.7415      114.6407       6762.509       116.6183       2.5435         3              2              
1432.7124      1329.7409      2.0626751      1332.7826      228.76123      3399.2921      -999.25        0.51849997     2757.5923      110.5312       7035.997       117.5477       2.5515         3              2              
1432.8648      1329.8536      2.0528431      1378.8911      221.06504      3492.0857      -999.25        0.51920003     2836.1772      107.4686       7184.6045      118.5637       2.5332         3              2              
1433.0172      1329.9663      2.061905       1401.6266      217.46506      3512.1943      -999.25        0.5176         2893.3696      105.3443       7249.3375      117.9931       2.5055         3              2              
1433.1696      1330.079       2.07851        1405.2494      216.90107      3497.8536      -999.25        0.51419997     2926.7676      104.1422       7279.164       115.7328       2.4871001      3              2              
1433.3220      1330.1917      2.0898442      1396.3426      218.28808      3457.0104      -999.25        0.51679999     2920.4663      104.3669       7231.6585      113.8252       2.4762         3              2              
1433.4744      1330.3044      2.1071427      1376.246       221.48039      3386.2141      -999.25        0.52770001     2901.3982      105.0528       7139.1805      112.5492       2.4606001      3              2              
1433.6268      1330.4171      2.1268824      1350.5124      225.70355      3303.7208      -999.25        0.53899997     2874.856       106.0227       7029.5975      109.8821       2.4452         3              2              
1433.7792      1330.5298      2.1335457      1324.7568      230.09084      3234.932       -999.25        0.54159999     2823.0378      107.9688       6889.624       105.2664       2.4405         3              2              
1433.9316      1330.6425      2.130073       1313.6905      232.01837      3210.0328      -999.25        0.53860003     2789.4412      109.2692       6820.741       101.6038       2.4452         3              2              
1434.0840      1330.7552      2.1281742      1313.3391      232.08027      3213.94        -999.25        0.53829998     2801.3264      108.8056       6853.7255      99.929398      2.4466001      3              2              
1434.2364      1330.8679      2.1331645      1306.0341      233.38367      3184.8864      -999.25        0.54220003     2792.7944      109.138        6811.346       98.228996      2.4388999      3              2              
1434.3888      1330.9806      2.1381394      1290.5223      236.18772      3129.2386      -999.25        0.54470003     2749.741       110.8468       6667.572       95.150398      2.4248         3              2              
1434.5412      1331.0933      2.1353147      1291.9347      235.92826      3121.6731      -999.25        0.54460001     2747.488       110.9377       6640.4035      92.583199      2.4168999      3              2              
1434.6936      1331.2111      2.1251466      1314.944       231.81598      3191.2265      -999.25        0.54549998     2798.7183      108.907        6789.131       92.0298        2.4258         2              2              
1434.8460      1331.3296      2.1235501      1337.6786      227.8619       3280.4855      -999.25        0.54809999     2846.1296      107.0928       6975.579       91.982399      2.4508999      2              1              
1434.9984      1331.4482      2.1457239      1347.8229      226.14289      3347.1999      -999.25        0.5499         2890.272       105.4572       7178.28        90.000801      2.4836001      2              1              
1435.1508      1331.5667      2.173673       1360.1442      224.09917      3423.8663      -999.25        0.54750001     2953.8892      103.186        7439.074       86.194702      2.5183999      2              1              
1435.3032      1331.6853      2.1578983      1370.1161      222.46337      3502.519       -999.25        0.53780001     2969.8225      102.6324       7582.254       82.319099      2.5531001      2              1              
1435.4556      1331.8038      2.1458977      1357.1433      224.60581      3507.6621      -999.25        0.52200001     2916.0906      104.5235       7540.1355      79.413696      2.5857         2              1              
1435.6080      1331.9224      2.1447675      1324.7158      230.10449      3451.2752      -999.25        0.50709999     2835.2803      107.5026       7392.9935      77.560699      2.6075         2              1              
1435.7604      1332.0409      2.1192175      1283.4132      237.53116      3345.7901      -999.25        0.49950001     2732.7646      111.5354       7124.044       76.899597      2.6068999      2              1              
1435.9128      1332.1595      2.1349592      1226.8954      248.51894      3167.7156      -999.25        0.49869999     2616.1204      116.5084       6754.038       77.280197      2.5817         2              1              
1436.0652      1332.278       2.1595024      1180.0043      258.33584      3010.4958      -999.25        0.50120002     2538.7622      120.0585       6475.113       78.146896      2.5505         2              1              
1436.2176      1332.3966      2.167087       1163.1769      262.04204      2945.0644      -999.25        0.50569999     2514.4448      121.2196       6367.329       79.459198      2.5323         3              1              
1436.3700      1332.5151      2.1660815      1165.6945      261.47748      2943.7018      -999.25        0.5108         2519.6057      120.9713       6364.0205      80.911499      2.5258         3              2              
1436.5224      1332.6336      2.1572091      1179.8492      258.34659      2971.6333      -999.25        0.51289999     2546.9766      119.6713       6418.381       82.005699      2.52           3              2              
1436.6748      1332.7522      2.1519367      1184.3748      257.35107      2982.7715      -999.25        0.51190001     2560.2622      119.0503       6439.316       82.105301      2.5151001      3              2              
1436.8272      1332.8707      2.1613975      1172.7784      259.90767      2951.8055      -999.25        0.51169997     2532.7354      120.3442       6375.9075      81.209503      2.5173999      3              2              
1436.9796      1332.9893      2.1672249      1156.7452      263.50177      2919.0183      -999.25        0.51359999     2503.7952      121.7352       6320.33        79.679001      2.5243         3              2              
1437.1320      1333.1078      2.1636202      1146.8826      265.76553      2901.3807      -999.25        0.51639998     2482.9966      122.7549       6279.9945      77.995796      2.5292         3              2              
1437.2844      1333.2278      2.1405398      1141.1372      267.10249      2890.1401      -999.25        0.52029997     2439.0361      124.9674       6179.054       76.861801      2.5333999      3              2              
1437.4368      1333.3502      2.1037206      1145.928       265.99004      2915.2732      -999.25        0.52469999     2402.5217      126.8667       6111.2945      76.451103      2.5437         3              2              
1437.5892      1333.4727      2.0854399      1160.9265      262.55562      2974.0592      -999.25        0.52640003     2426.4502      125.6156       6214.624       76.134399      2.5612         3              2              
