~VERSION INFORMATION
VERS.                  2.0 : CWLS LOG ASCII STANDARD VERSION 2.0
WRAP.                  NO  : DATA IS NOT WRAPPED
~Well Information Section
#MNEM.UNIT          VALUE/NAME                 DESCRIPTION
#----------------------------------------------------------------------
STRT.m                 636.7272 : START DEPTH
STOP.m                1627.9368 : STOP DEPTH
STEP.m                   0.1524 : STEP
NULL.                -999.25 : NULL VALUE
COMP.                                             : COMPANY
WELL.    WDU-5                                    : WELL
FLD .                                             : FIELD
LOC .           242698.6,       2583682.1         : LOCATION
CNTY.                                             : COUNTY
STAT.                                             : STATE
CTRY.                                             : COUNTRY
SRVC.    Jason                                    : SERVICE
DATE.                                             : DATE
API .                                             : API
~Curve Information Section
#MNEM.UNIT          API CODE                   DESCRIPTION
#----------------------------------------------------------------------
DEPTH.m                          : * MD (TRACK/INDEX)
TIME .ms                         : TIME 
VPVS .none                       : VP/VS
VS   .m/s                        : S-VELOCITY
DTS  .us/ft                      : S-SONIC
S-IMP.g/cm^3*m/s                 : S-IMPEDANCE
RESIS.ohm*m                      : RESISTIVITY
NPHI .none                       : POROSITY NEUTRON
VP   .m/s                        : P-VELOCITY
DT   .us/ft                      : P-SONIC
P-IMP.g/cm^3*m/s                 : P-IMPEDANCE
GR   .gAPI                       : GAMMA RAY
RHOB .g/cm^3                     : DENSITY
4FACIES.none                       : 4FACIES
3FACIES.none                       : SANDSHALECOAL
~Parameter Information Section
#MNEM.UNIT          API CODE                   DESCRIPTION
#----------------------------------------------------------------------
XCRD .m                242698.600            : WELL POSITION X-COORD
YCRD .m                2583682.100           : WELL POSITION Y-COORD
DATUM.m                82.960                : WELL DATUM
~Other Information Section
#----------------------------------------------------------------------
# Data exported from Jason, (C) Jason, 2015
# Input file: 2_WELLS_RPM_Pred/WDU-5.wll
#----------------------------------------------------------------------
~A DEPTH        TIME           VPVS           VS             DTS            S-IMP          RESIS          NPHI           VP             DT             P-IMP          GR             RHOB           4FACIES        3FACIES        
# ...
1317.0408      1231.3899      2.2272966      1097.3286      277.77102      2559.7204      -999.25        0.54680002     2440.3582      124.8997       5692.6235      79.553398      2.3327         3              2              
1317.1932      1231.5216      2.2123663      1121.065       271.91147      2638.0158      -999.25        0.54220003     2473.6584      123.2183       5820.5185      78.825996      2.353          3              2              
1317.3456      1231.6532      2.182302       1166.5717      261.35718      2777.7425      -999.25        0.5334         2539.7144      120.0135       6048.3295      77.958801      2.3815         3              2              
1317.4980      1231.7849      2.1271946      1230.5887      247.78735      2962.5153      -999.25        0.51950002     2618.397       116.4071       6303.7905      77.887001      2.4075         3              2              
1317.6504      1231.9166      2.0750461      1294.5014      235.52138      3144.2367      -999.25        0.50520003     2689.8872      113.3133       6533.467       79.009201      2.4288999      3              2              
1317.8028      1232.0482      2.0452619      1341.324       227.26163      3283.1693      -999.25        0.49630001     2748.9846      110.8773       6728.965       79.662598      2.4478         3              2              
1317.9552      1232.1784      2.0359082      1364.6469      223.35771      3358.503       -999.25        0.493          2783.6353      109.4971       6851.9185      79.228996      2.4615         3              2              
1318.1076      1232.3086      2.03493        1370.8349      222.34631      3372.5864      -999.25        0.49110001     2790.9685      109.2094       6866.62        78.9683        2.4603         3              2              
1318.2600      1232.4389      2.0362191      1369.3412      222.58908      3355.5232      -999.25        0.49079999     2791.6714      109.1819       6838.4785      79.455704      2.4496001      3              2              
1318.4124      1232.5691      2.0406183      1353.2898      225.24085      3304.9115      -999.25        0.4962         2771.8391      109.9631       6765.505       79.5588        2.4408         3              2              
1318.5648      1232.6993      2.0664743      1308.3628      233.02536      3186.7631      -999.25        0.5061         2707.7737      112.5648       6595.0535      78.896202      2.4356001      3              2              
1318.7172      1232.8295      2.1116166      1246.3102      244.64135      3027.987       -999.25        0.5169         2628.9504      115.9398       6388.3495      78.508797      2.43           3              2              
1318.8696      1232.9598      2.1538178      1187.8677      256.66051      2879.2162      -999.25        0.52560002     2557.5383      119.1771       6198.45        78.174004      2.4236001      3              2              
1319.0220      1233.09        2.1883271      1138.9265      267.67174      2753.2984      -999.25        0.53149998     2489.1121      122.4533       6018.1755      76.758003      2.4178         3              2              
1319.1744      1233.2202      2.2132347      1102.0856      276.59372      2650.273       -999.25        0.53399998     2435.2537      125.1615       5858.9765      74.836304      2.4058999      2              2              
1319.3268      1233.3505      2.2354166      1075.8351      283.33039      2563.4517      -999.25        0.5341         2404.7224      126.7506       5730.2125      74.264099      2.3828999      2              1              
1319.4792      1233.4807      2.2614373      1057.335       288.28055      2491.7356      -999.25        0.53320003     2389.1416      127.5772       5627.384       74.920601      2.3553999      2              1              
1319.6316      1233.6109      2.2776878      1053.4968      289.32232      2460.2706      -999.25        0.53210002     2390.1177      127.5251       5584.2705      75.218697      2.3363999      2              1              
1319.7840      1233.7412      2.2676339      1066.3241      285.86149      2497.4008      -999.25        0.52859998     2415.2004      126.2007       5654.226       74.971397      2.3411001      2              1              
1319.9364      1233.8714      2.2411347      1093.21        278.83746      2575.3495      -999.25        0.52289999     2451.5068      124.3317       5775.26        75.456902      2.3558         2              1              
1320.0888      1234.0016      2.2150707      1119.3948      272.30578      2648.9318      -999.25        0.51499999     2480.7998      122.8636       5871.0615      76.954597      2.3666001      2              1              
1320.2412      1234.1319      2.194026       1138.7856      267.66071      2711.097       -999.25        0.50910002     2500.6646      121.8876       5950.081       78.334         2.3793999      2              1              
1320.3936      1234.2635      2.1761687      1147.1503      265.7023       2769.631       -999.25        0.5061         2501.1509      121.8639       6036.778       78.646202      2.4136001      3              1              
1320.5460      1234.3964      2.1732882      1146.5014      265.85275      2800.1941      -999.25        0.5054         2490.5867      122.3808       6086.994       78.221001      2.444          3              2              
1320.6984      1234.5293      2.1748179      1143.7484      266.49226      2798.7781      -999.25        0.50319999     2487.0669      122.554        6088.8375      78.5065        2.4482         3              2              
1320.8508      1234.6622      2.1767588      1140.3907      267.27733      2780.887       -999.25        0.50300002     2485.0413      122.6539       6057.785       79.759499      2.4377         3              2              
1321.0032      1234.7951      2.1814044      1131.8607      269.29505      2752.9594      -999.25        0.50809997     2470.0422      123.3987       6006.649       80.906097      2.4318         3              2              
1321.1556      1234.928       2.1875121      1119.4674      272.27683      2721.0092      -999.25        0.51590002     2447.9097      124.5144       5950.379       80.931297      2.4308         3              2              
1321.3080      1235.0609      2.1925047      1109.7009      274.67037      2694.6481      -999.25        0.52060002     2431.5527      125.352        5904.5395      80.557999      2.4283         3              2              
1321.4604      1235.1938      2.1955763      1105.3532      275.74911      2680.1354      -999.25        0.5212         2425.4692      125.6664       5881.52        80.621803      2.4248999      3              2              
1321.6128      1235.3268      2.1968091      1105.3132      275.75901      2675.5531      -999.25        0.51910001     2427.1421      125.5798       5875.868       80.784401      2.4208999      3              2              
1321.7652      1235.4597      2.1968122      1108.6479      274.93022      2679.7701      -999.25        0.51620001     2434.5261      125.1989       5884.4935      80.520203      2.4171001      3              2              
1321.9176      1235.5926      2.1934137      1116.504       272.9978       2696.9001      -999.25        0.51310003     2447.157       124.5527       5911.1075      80.479401      2.4155         3              2              
1322.0700      1235.7255      2.1833192      1130.962       269.51359      2732.3337      -999.25        0.51069999     2466.8418      123.5588       5959.8895      81.191597      2.416          3              2              
1322.2224      1235.8584      2.1667356      1152.0242      264.59185      2788.9272      -999.25        0.50999999     2495.679       122.1311       6040.541       82.066399      2.4203999      3              2              
1322.3748      1235.9913      2.151128       1173.0061      259.85412      2853.6576      -999.25        0.50940001     2525.7842      120.6754       6144.7275      82.624802      2.4328         3              2              
