~VERSION INFORMATION
VERS.                  2.0 : CWLS LOG ASCII STANDARD VERSION 2.0
WRAP.                  NO  : DATA IS NOT WRAPPED
~Well Information Section
#MNEM.UNIT          VALUE/NAME                 DESCRIPTION
#----------------------------------------------------------------------
STRT.m                 636.7272 : START DEPTH
STOP.m                1627.9368 : STOP DEPTH
STEP.m                   0.1524 : STEP
NULL.                -999.25 : NULL VALUE
COMP.                                             : COMPANY
WELL.    WDU-5                                    : WELL
FLD .                                             : FIELD
LOC .           242698.6,       2583682.1         : LOCATION
CNTY.                                             : COUNTY
STAT.                                             : STATE
CTRY.                                             : COUNTRY
SRVC.    Jason                                    : SERVICE
DATE.                                             : DATE
API .                                             : API
~Curve Information Section
#MNEM.UNIT          API CODE                   DESCRIPTION
#----------------------------------------------------------------------
DEPTH.m                          : * MD (TRACK/INDEX)
TIME .ms                         : TIME 
VPVS .none                       : VP/VS
VS   .m/s                        : S-VELOCITY
DTS  .us/ft                      : S-SONIC
S-IMP.g/cm^3*m/s                 : S-IMPEDANCE
RESIS.ohm*m                      : RESISTIVITY
NPHI .none                       : POROSITY NEUTRON
VP   .m/s                        : P-VELOCITY
DT   .us/ft                      : P-SONIC
P-IMP.g/cm^3*m/s                 : P-IMPEDANCE
GR   .gAPI                       : GAMMA RAY
RHOB .g/cm^3                     : DENSITY
4FACIES.none                       : 4FACIES
3FACIES.none                       : SANDSHALECOAL
~Parameter Information Section
#MNEM.UNIT          API CODE                   DESCRIPTION
#----------------------------------------------------------------------
XCRD .m                242698.600            : WELL POSITION X-COORD
YCRD .m                2583682.100           : WELL POSITION Y-COORD
DATUM.m                82.960                : WELL DATUM
~Other Information Section
#----------------------------------------------------------------------
# Data exported from Jason, (C) Jason, 2015
# Input file: 2_WELLS_RPM_Pred/WDU-5.wll
#----------------------------------------------------------------------
~A DEPTH        TIME           VPVS           VS             DTS            S-IMP          RESIS          NPHI           VP             DT             P-IMP          GR             RHOB           4FACIES        3FACIES        
# ...
1525.5240      1416.7157      2.2528004      1040.9814      292.83424      1964.7959      -999.25        0.4896         2346.5828      129.89101      4422.839       73.588501      1.8848         0              2              
1525.6764      1416.8424      2.3397587      1002.0201      304.2583       1797.3758      -999.25        0.4964         2347.1213      129.86121      4201.1125      70.316803      1.7899         0              0              
1525.8288      1416.9691      2.4586366      965.27142      315.81449      1692.8249      -999.25        0.50190002     2368.8984      128.6674       4142.9665      67.005302      1.7489         0              0              
1525.9812      1417.0958      2.5391987      955.08928      319.13247      1692.8471      -999.25        0.50980002     2411.4399      126.3975       4276.448       65.657303      1.7734         0              0              
1526.1336      1417.2225      2.5609602      977.51261      311.91157      1810.8091      -999.25        0.51639998     2481.2844      122.8396       4592.3615      66.485901      1.8508         0              0              
1526.2860      1417.3492      2.4321756      1062.5363      287.33445      2082.5126      -999.25        0.51440001     2566.8103      118.7466       5027.3545      67.583603      1.9586         0              0              
1526.4384      1417.4759      2.2143249      1187.7533      257.04066      2481.9781      -999.25        0.50400001     2642.7891      115.3327       5519.2005      68.677101      2.0883999      2              0              
1526.5908      1417.6026      2.0977223      1266.304       240.74544      2811.5973      -999.25        0.4928         2680.3428      113.7168       5951.7015      71.1092        2.2205         2              1              
1526.7432      1417.7293      2.0874724      1278.7452      238.3591       2951.8551      -999.25        0.4878         2677.2117      113.8498       6184.627       74.723297      2.3101001      2              1              
1526.8956      1417.856       2.1042633      1267.4027      240.49781      2963.6496      -999.25        0.49110001     2664.5569      114.3905       6236.1285      77.360703      2.3403999      2              1              
1527.0480      1417.9827      2.1226327      1250.5705      243.73373      2924.7538      -999.25        0.5            2656.2046      114.7502       6211.2685      78.0336        2.3383999      3              1              
1527.2004      1418.1094      2.1446968      1230.2614      247.76298      2870.7342      -999.25        0.50840002     2640.7217      115.423        6160.011       77.413399      2.3327         3              2              
1527.3528      1418.2361      2.1701666      1202.6492      253.46107      2803.3381      -999.25        0.51380002     2611.8052      116.7009       6088.118       76.398499      2.331          3              2              
1527.5052      1418.3618      2.2004559      1168.2939      260.92558      2718.3982      -999.25        0.51880002     2572.2756      118.4943       5985.6855      75.434402      2.327          3              2              
1527.6576      1418.4854      2.2368722      1132.0758      269.27457      2620.121       -999.25        0.52469999     2531.3911      120.4081       5858.6515      74.544296      2.3143999      3              2              
1527.8100      1418.6089      2.2662901      1107.2885      275.27671      2544.9818      -999.25        0.52740002     2503.4353      121.7527       5752.143       73.637001      2.2977         3              2              
1527.9624      1418.7325      2.2700246      1102.1708      276.5452       2520.5955      -999.25        0.52420002     2496.0037      122.1152       5710.8565      72.979797      2.288          3              2              
1528.1148      1418.8561      2.2523146      1108.5591      274.95592      2538.5192      -999.25        0.51749998     2496.1345      122.1088       5714.151       73.249603      2.2892         2              2              
1528.2672      1418.9796      2.2287451      1124.6775      271.02087      2583.7952      -999.25        0.51090002     2503.5564      121.7468       5751.6705      74.0672        2.2973999      2              1              
1528.4196      1419.1032      2.2007629      1150.9127      264.85861      2657.2369      -999.25        0.505          2529.7019      120.4885       5841.082       74.617599      2.309          2              1              
1528.5720      1419.2268      2.1661995      1187.2145      256.7727       2759.4992      -999.25        0.4993         2570.7114      118.5664       5974.3335      74.421799      2.324          2              1              
1528.7244      1419.3503      2.1335219      1221.1551      249.61999      2866.282       -999.25        0.4941         2609.9556      116.7836       6126.6095      73.895798      2.3473999      2              1              
1528.8768      1419.4739      2.1195772      1233.8019      247.04158      2936.0337      -999.25        0.49079999     2624.6628      116.1292       6240.136       73.287399      2.3775         2              1              
1529.0292      1419.5975      2.1224676      1226.0141      248.61881      2942.9792      -999.25        0.49110001     2606.4158      116.9422       6260.8715      71.905296      2.4021001      2              1              
1529.1816      1419.7211      2.1379067      1204.2841      253.11022      2891.9179      -999.25        0.4962         2572.4277      118.4873       6178.457       69.472504      2.4018         2              1              
1529.3340      1419.8446      2.1548194      1194.7655      255.11293      2839.5922      -999.25        0.50389999     2563.9236      118.8803       6100.5995      67.755302      2.3793999      2              1              
1529.4864      1419.9682      2.1550097      1203.4944      253.27224      2838.4891      -999.25        0.50870001     2591.7861      117.6023       6107.8035      68.606903      2.3566001      2              1              
1529.6388      1420.0918      2.1388342      1227.0615      248.41298      2893.7218      -999.25        0.50660002     2624.4663      116.1379       6184.8175      71.702698      2.3566001      2              1              
1529.7912      1420.2153      2.1151393      1252.3696      243.39101      2984.085       -999.25        0.5            2649.2024      115.0535       6312.5195      75.240799      2.3828         2              1              
1529.9436      1420.3389      2.0973881      1266.88        240.59252      3053.0858      -999.25        0.495          2663.2344      114.4473       6420.792       77.410698      2.4108999      3              1              
1530.0960      1420.4665      2.0976282      1266.8201      240.60308      3057.4776      -999.25        0.4941         2661.0698      114.5404       6423.024       77.766403      2.4137         3              2              
1530.2484      1420.596       2.1089688      1253.4551      243.17591      3014.3205      -999.25        0.49540001     2647.1868      115.1411       6362.7785      77.4832        2.4036001      3              2              
1530.4008      1420.7256      2.1303466      1220.8906      249.69228      2935.7098      -999.25        0.4962         2609.5869      116.8001       6273.708       77.896599      2.4041001      3              2              
1530.5532      1420.8551      2.1730507      1167.3116      261.20667      2794.6165      -999.25        0.49700001     2537.5681      120.115        6080.0135      77.964104      2.396          3              2              
1530.7056      1420.9846      2.2209837      1111.2356      274.36574      2610.4309      -999.25        0.50050002     2462.4473      123.7793       5787.736       76.215302      2.3503999      3              2              
1530.8580      1421.1141      2.2584615      1075.263       283.48671      2455.0022      -999.25        0.50650001     2422.0522      125.8437       5527.6075      74.473297      2.2822         3              2              
