~VERSION INFORMATION
VERS.                  2.0 : CWLS LOG ASCII STANDARD VERSION 2.0
WRAP.                  NO  : DATA IS NOT WRAPPED
~Well Information Section
#MNEM.UNIT          VALUE/NAME                 DESCRIPTION
#----------------------------------------------------------------------
STRT.m                 636.7272 : START DEPTH
STOP.m                1627.9368 : STOP DEPTH
STEP.m                   0.1524 : STEP
NULL.                -999.25 : NULL VALUE
COMP.                                             : COMPANY
WELL.    WDU-5                                    : WELL
FLD .                                             : FIELD
LOC .           242698.6,       2583682.1         : LOCATION
CNTY.                                             : COUNTY
STAT.                                             : STATE
CTRY.                                             : COUNTRY
SRVC.    Jason                                    : SERVICE
DATE.                                             : DATE
API .                                             : API
~Curve Information Section
#MNEM.UNIT          API CODE                   DESCRIPTION
#----------------------------------------------------------------------
DEPTH.m                          : * MD (TRACK/INDEX)
TIME .ms                         : TIME 
VPVS .none                       : VP/VS
VS   .m/s                        : S-VELOCITY
DTS  .us/ft                      : S-SONIC
S-IMP.g/cm^3*m/s                 : S-IMPEDANCE
RESIS.ohm*m                      : RESISTIVITY
NPHI .none                       : POROSITY NEUTRON
VP   .m/s                        : P-VELOCITY
DT   .us/ft                      : P-SONIC
P-IMP.g/cm^3*m/s                 : P-IMPEDANCE
GR   .gAPI                       : GAMMA RAY
RHOB .g/cm^3                     : DENSITY
4FACIES.none                       : 4FACIES
3FACIES.none                       : SANDSHALECOAL
~Parameter Information Section
#MNEM.UNIT          API CODE                   DESCRIPTION
#----------------------------------------------------------------------
XCRD .m                242698.600            : WELL POSITION X-COORD
YCRD .m                2583682.100           : WELL POSITION Y-COORD
DATUM.m                82.960                : WELL DATUM
~Other Information Section
#----------------------------------------------------------------------
# Data exported from Jason, (C) Jason, 2015
# Input file: 2_WELLS_RPM_Pred/WDU-5.wll
#----------------------------------------------------------------------
~A DEPTH        TIME           VPVS           VS             DTS            S-IMP          RESIS          NPHI           VP             DT             P-IMP          GR             RHOB           4FACIES        3FACIES        
# ...
1596.8472      1474.1647      -999.25        -999.25        -999.25        -999.25        -999.25        0.59759998     1947.1671      156.5351       2369.313       27.0847        1.2168         0              0              
1596.9996      1474.3139      -999.25        -999.25        -999.25        -999.25        -999.25        0.60290003     1924.6688      158.36491      2249.3603      23.045401      1.1687         0              0              
1597.1520      1474.4632      -999.25        -999.25        -999.25        -999.25        -999.25        0.60460001     1927.4146      158.1393       2221.9237      21.999201      1.1528         0              0              
1597.3044      1474.6125      -999.25        -999.25        -999.25        -999.25        -999.25        0.59960002     1942.6769      156.89691      2272.5435      23.752701      1.1698         0              0              
1597.4568      1474.7618      -999.25        -999.25        -999.25        -999.25        -999.25        0.59130001     1969.5458      154.75649      2424.314       28.424         1.2309         0              0              
1597.6092      1474.9111      -999.25        -999.25        -999.25        -999.25        -999.25        0.58310002     2012.6823      151.4397       2712.6933      35.689701      1.3478         0              0              
1597.7616      1475.0603      -999.25        -999.25        -999.25        -999.25        -999.25        0.5747         2071.5276      147.1378       3114.3345      44.150002      1.5034         0              0              
1597.9140      1475.2096      -999.25        -999.25        -999.25        -999.25        -999.25        0.56400001     2138.9983      142.4966       3550.7373      52.4221        1.66           0              0              
1598.0664      1475.3566      -999.25        -999.25        -999.25        -999.25        -999.25        0.54939997     2204.8723      138.2393       3995.2288      60.1721        1.812          0              0              
1598.2188      1475.4941      -999.25        -999.25        -999.25        -999.25        -999.25        0.53280002     2264.4871      134.60001      4460.8135      66.923698      1.9699         0              0              
1598.3712      1475.6315      -999.25        -999.25        -999.25        -999.25        -999.25        0.52200001     2309.698       131.9653       4874.3865      71.734001      2.1103999      0              0              
1598.5236      1475.769       -999.25        -999.25        -999.25        -999.25        -999.25        0.5237         2331.2893      130.7431       5123.0085      74.464104      2.1975         0              0              
1598.6760      1475.9064      -999.25        -999.25        -999.25        -999.25        -999.25        0.53430003     2332.8203      130.6573       5225.751       75.891602      2.2401001      3              0              
1598.8284      1476.0439      -999.25        -999.25        -999.25        -999.25        -999.25        0.54759997     2326.135       131.03281      5280.0935      76.622902      2.2698999      3              2              
1598.9808      1476.1813      -999.25        -999.25        -999.25        -999.25        -999.25        0.56110001     2311.6179      131.8557       5313.254       76.877899      2.2985         3              2              
1599.1332      1476.3188      -999.25        -999.25        -999.25        -999.25        -999.25        0.57389998     2289.4226      133.134        5327.029       77.303101      2.3268         3              2              
1599.2856      1476.4562      -999.25        -999.25        -999.25        -999.25        -999.25        0.58329999     2268.7905      134.3447       5338.0105      78.380898      2.3528         3              2              
1599.4380      1476.5937      -999.25        -999.25        -999.25        -999.25        -999.25        0.58679998     2252.5166      135.31531      5348.601       79.247704      2.3745         3              2              
1599.5904      1476.7311      -999.25        -999.25        -999.25        -999.25        -999.25        0.58039999     2242.6042      135.91341      5352.648       78.859497      2.3868         3              2              
1599.7428      1476.8686      -999.25        -999.25        -999.25        -999.25        -999.25        0.56550002     2245.6265      135.7305       5363.23        77.849602      2.3883         3              2              
1599.8952      1477.006       -999.25        -999.25        -999.25        -999.25        -999.25        0.54689997     2264.7449      134.5847       5383.978       77.7519        2.3773         3              2              
1600.0476      1477.1435      -999.25        -999.25        -999.25        -999.25        -999.25        0.52990001     2296.8445      132.7038       5410.6765      78.728203      2.3557         3              2              
1600.2000      1477.2809      -999.25        -999.25        -999.25        -999.25        -999.25        0.51490003     2352.2603      129.5775       5485.7065      79.833199      2.3321001      3              2              
1600.3524      1477.4097      -999.25        -999.25        -999.25        -999.25        -999.25        0.50260001     2440.0164      124.9172       5656.4455      80.391602      2.3182         3              2              
1600.5048      1477.5312      -999.25        -999.25        -999.25        -999.25        -999.25        0.49430001     2529.2612      120.5095       5870.921       80.356903      2.3212         3              2              
1600.6572      1477.6527      -999.25        -999.25        -999.25        -999.25        -999.25        0.49290001     2591.9888      117.5931       6038.038       79.979401      2.3295         3              2              
1600.8096      1477.7742      -999.25        -999.25        -999.25        -999.25        -999.25        0.49860001     2628.572       115.9565       6121.944       79.776703      2.329          3              2              
1600.9620      1477.8956      -999.25        -999.25        -999.25        -999.25        -999.25        0.50330001     2631.5425      115.8256       6114.9155      79.769798      2.3237         2              2              
1601.1144      1478.0171      -999.25        -999.25        -999.25        -999.25        -999.25        0.5097         2592.0813      117.5889       6026.3295      79.517601      2.3248999      2              1              
1601.2668      1478.1386      -999.25        -999.25        -999.25        -999.25        -999.25        0.52109998     2539.894       120.005        5902.206       78.990799      2.3238         2              1              
1601.4192      1478.2601      -999.25        -999.25        -999.25        -999.25        -999.25        0.5316         2492.4971      122.287        5750.689       79.078598      2.3072         2              1              
1601.5716      1478.3815      -999.25        -999.25        -999.25        -999.25        -999.25        0.53070003     2448.5154      124.4836       5584.3285      80.316803      2.2807         2              1              
1601.7240      1478.503       -999.25        -999.25        -999.25        -999.25        -999.25        0.52520001     2431.1765      125.3714       5496.4035      82.294701      2.2608         3              1              
1601.8764      1478.6245      -999.25        -999.25        -999.25        -999.25        -999.25        0.5205         2454.4541      124.1824       5526.94        84.011101      2.2518         3              2              
1602.0288      1478.746       -999.25        -999.25        -999.25        -999.25        -999.25        0.51480001     2500.4326      121.8989       5622.973       84.586998      2.2488         3              2              
1602.1812      1478.8675      -999.25        -999.25        -999.25        -999.25        -999.25        0.50880003     2552.0947      119.4313       5731.4945      84.414497      2.2458         3              2              
