~VERSION INFORMATION
VERS.                  2.0 : CWLS LOG ASCII STANDARD VERSION 2.0
WRAP.                  NO  : DATA IS NOT WRAPPED
~Well Information Section
#MNEM.UNIT          VALUE/NAME                 DESCRIPTION
#----------------------------------------------------------------------
STRT.m                 636.7272 : START DEPTH
STOP.m                1627.9368 : STOP DEPTH
STEP.m                   0.1524 : STEP
NULL.                -999.25 : NULL VALUE
COMP.                                             : COMPANY
WELL.    WDU-5                                    : WELL
FLD .                                             : FIELD
LOC .           242698.6,       2583682.1         : LOCATION
CNTY.                                             : COUNTY
STAT.                                             : STATE
CTRY.                                             : COUNTRY
SRVC.    Jason                                    : SERVICE
DATE.                                             : DATE
API .                                             : API
~Curve Information Section
#MNEM.UNIT          API CODE                   DESCRIPTION
#----------------------------------------------------------------------
DEPTH.m                          : * MD (TRACK/INDEX)
TIME .ms                         : TIME 
VPVS .none                       : VP/VS
VS   .m/s                        : S-VELOCITY
DTS  .us/ft                      : S-SONIC
S-IMP.g/cm^3*m/s                 : S-IMPEDANCE
RESIS.ohm*m                      : RESISTIVITY
NPHI .none                       : POROSITY NEUTRON
VP   .m/s                        : P-VELOCITY
DT   .us/ft                      : P-SONIC
P-IMP.g/cm^3*m/s                 : P-IMPEDANCE
GR   .gAPI                       : GAMMA RAY
RHOB .g/cm^3                     : DENSITY
4FACIES.none                       : 4FACIES
3FACIES.none                       : SANDSHALECOAL
~Parameter Information Section
#MNEM.UNIT          API CODE                   DESCRIPTION
#----------------------------------------------------------------------
XCRD .m                242698.600            : WELL POSITION X-COORD
YCRD .m                2583682.100           : WELL POSITION Y-COORD
DATUM.m                82.960                : WELL DATUM
~Other Information Section
#----------------------------------------------------------------------
# Data exported from Jason, (C) Jason, 2015
# Input file: 2_WELLS_RPM_Pred/WDU-5.wll
#----------------------------------------------------------------------
~A DEPTH        TIME           VPVS           VS             DTS            S-IMP          RESIS          NPHI           VP             DT             P-IMP          GR             RHOB           4FACIES        3FACIES        
# ...
1273.1496      1185.821       -999.25        -999.25        -999.25        -999.25        -999.25        0.51539999     -999.25        -999.25        -999.25        43.827499      2.4088         3              2              
1273.3020      1186.0377      -999.25        -999.25        -999.25        -999.25        -999.25        0.51200002     -999.25        -999.25        -999.25        45.480499      2.3973         3              2              
1273.4544      1186.2544      -999.25        -999.25        -999.25        -999.25        -999.25        0.5133         -999.25        -999.25        -999.25        48.242401      2.3741001      3              2              
1273.6068      1186.4711      -999.25        -999.25        -999.25        -999.25        -999.25        0.52079999     -999.25        -999.25        -999.25        50.667599      2.3478         3              2              
1273.7592      1186.6877      -999.25        -999.25        -999.25        -999.25        -999.25        0.53250003     -999.25        -999.25        -999.25        52.333599      2.3253999      3              2              
1273.9116      1186.9044      -999.25        -999.25        -999.25        -999.25        -999.25        0.54400003     1454.5538      209.54879      3357.401       53.9641        2.3082         3              2              
1274.0640      1187.1211      -999.25        -999.25        -999.25        -999.25        -999.25        0.55220002     1396.6033      218.2438       3207.5785      55.291599      2.2967         3              2              
1274.2164      1187.3425      -999.25        -999.25        -999.25        -999.25        -999.25        0.55720001     1366.9338      222.9808       3134.106       55.5676        2.2928         3              2              
1274.3688      1187.5683      -999.25        -999.25        -999.25        -999.25        -999.25        0.5614         1345.14        226.5935       3085.6168      54.9897        2.2938999      3              2              
1274.5212      1187.7942      -999.25        -999.25        -999.25        -999.25        -999.25        0.56550002     1335.6727      228.19961      3062.564       54.696602      2.2928999      3              2              
1274.6736      1188.02        -999.25        -999.25        -999.25        -999.25        -999.25        0.56989998     1334.5703      228.38811      3050.6943      55.099998      2.2858999      3              2              
1274.8260      1188.2459      -999.25        -999.25        -999.25        -999.25        -999.25        0.57410002     1334.1376      228.4622       3041.033       55.400398      2.2793999      3              2              
1274.9784      1188.4717      -999.25        -999.25        -999.25        -999.25        -999.25        0.57669997     1330.7091      229.0508       3029.8915      55.213699      2.2768999      3              2              
1275.1308      1188.6976      -999.25        -999.25        -999.25        -999.25        -999.25        0.57440001     1326.1462      229.8389       3019.7677      55.057301      2.2771001      3              2              
1275.2832      1188.9234      -999.25        -999.25        -999.25        -999.25        -999.25        0.56639999     1326.0822      229.85001      3021.611       55.331299      2.2786001      3              2              
1275.4356      1189.1493      -999.25        -999.25        -999.25        -999.25        -999.25        0.55470002     1328.5446      229.424        3033.5985      55.4473        2.2833999      3              2              
1275.5880      1189.3697      -999.25        -999.25        -999.25        -999.25        -999.25        0.54210001     1331.2776      228.95301      3048.6255      55.138901      2.29           3              2              
1275.7404      1189.5846      -999.25        -999.25        -999.25        -999.25        -999.25        0.52960002     1337.0508      227.96441      3068.1305      54.950001      2.2947         3              2              
1275.8928      1189.8044      -999.25        -999.25        -999.25        -999.25        -999.25        0.51880002     1345.9294      226.4606       3090.658       55.301102      2.2963         3              2              
1276.0452      1190.0293      -999.25        -999.25        -999.25        -999.25        -999.25        0.51230001     1357.4763      224.5343       3117.3085      55.870602      2.2963999      3              2              
1276.1976      1190.2541      -999.25        -999.25        -999.25        -999.25        -999.25        0.51109999     1387.6698      219.6488       3186.3673      56.098099      2.2962         3              2              
1276.3500      1190.479       -999.25        -999.25        -999.25        -999.25        -999.25        0.50989997     1448.0869      210.4846       3323.6492      56.1008        2.2952         3              2              
1276.5024      1190.7039      -999.25        -999.25        -999.25        -999.25        -999.25        0.5054         1508.5436      202.04918      3461.5042      55.938202      2.2946001      3              2              
1276.6548      1190.9288      -999.25        -999.25        -999.25        -999.25        -999.25        0.49970001     1549.5742      196.69919      3557.3575      55.536598      2.2957         3              2              
1276.8072      1191.1537      -999.25        -999.25        -999.25        -999.25        -999.25        0.49399999     1581.2139      192.7633       3632.8387      54.577499      2.2975         3              2              
1276.9596      1191.3762      -999.25        -999.25        -999.25        -999.25        -999.25        0.48649999     1599.2025      190.595        3678.6455      53.607601      2.3003         3              2              
1277.1120      1191.5749      -999.25        -999.25        -999.25        -999.25        -999.25        0.47940001     1595.3971      191.04962      3678.826       53.373699      2.3058999      3              2              
1277.2644      1191.7736      -999.25        -999.25        -999.25        -999.25        -999.25        0.47420001     1577.2626      193.2462       3649.9435      53.836601      2.3141001      3              2              
1277.4168      1191.9724      -999.25        -999.25        -999.25        -999.25        -999.25        0.45750001     1545.1335      197.2645       3585.6373      54.433998      2.3206001      3              2              
1277.5692      1192.1711      -999.25        -999.25        -999.25        -999.25        -999.25        0.4145         1507.7256      202.15881      3504.105       55.4221        2.3241001      3              2              
1277.7216      1192.3698      -999.25        -999.25        -999.25        -999.25        -999.25        0.36379999     1497.1764      203.58322      3480.3365      57.205299      2.3246001      2              2              
1277.8740      1192.5686      -999.25        -999.25        -999.25        -999.25        -999.25        0.3188         1513.7158      201.3588       3520.4488      58.794998      2.3257         2              1              
1278.0264      1192.7673      -999.25        -999.25        -999.25        -999.25        -999.25        0.27079999     1529.5286      199.2771       3559.366       59.395802      2.3271001      2              1              
1278.1788      1192.966       -999.25        -999.25        -999.25        -999.25        -999.25        0.2155         1571.347       193.9737       3659.51        59.403801      2.3288999      2              1              
1278.3312      1193.1647      -999.25        -999.25        -999.25        -999.25        -999.25        0.17479999     1665.6647      182.99001      3883.997       59.689701      2.3318         2              1              
1278.4836      1193.3635      -999.25        -999.25        -999.25        -999.25        -999.25        0.1605         1760.187       173.16341      4113.381       60.054199      2.3368999      2              1              
