~VERSION INFORMATION
VERS.                  2.0 : CWLS LOG ASCII STANDARD VERSION 2.0
WRAP.                  NO  : DATA IS NOT WRAPPED
~Well Information Section
#MNEM.UNIT          VALUE/NAME                 DESCRIPTION
#----------------------------------------------------------------------
STRT.m                 636.7272 : START DEPTH
STOP.m                1627.9368 : STOP DEPTH
STEP.m                   0.1524 : STEP
NULL.                -999.25 : NULL VALUE
COMP.                                             : COMPANY
WELL.    WDU-5                                    : WELL
FLD .                                             : FIELD
LOC .           242698.6,       2583682.1         : LOCATION
CNTY.                                             : COUNTY
STAT.                                             : STATE
CTRY.                                             : COUNTRY
SRVC.    Jason                                    : SERVICE
DATE.                                             : DATE
API .                                             : API
~Curve Information Section
#MNEM.UNIT          API CODE                   DESCRIPTION
#----------------------------------------------------------------------
DEPTH.m                          : * MD (TRACK/INDEX)
TIME .ms                         : TIME 
VPVS .none                       : VP/VS
VS   .m/s                        : S-VELOCITY
DTS  .us/ft                      : S-SONIC
S-IMP.g/cm^3*m/s                 : S-IMPEDANCE
RESIS.ohm*m                      : RESISTIVITY
NPHI .none                       : POROSITY NEUTRON
VP   .m/s                        : P-VELOCITY
DT   .us/ft                      : P-SONIC
P-IMP.g/cm^3*m/s                 : P-IMPEDANCE
GR   .gAPI                       : GAMMA RAY
RHOB .g/cm^3                     : DENSITY
4FACIES.none                       : 4FACIES
3FACIES.none                       : SANDSHALECOAL
~Parameter Information Section
#MNEM.UNIT          API CODE                   DESCRIPTION
#----------------------------------------------------------------------
XCRD .m                242698.600            : WELL POSITION X-COORD
YCRD .m                2583682.100           : WELL POSITION Y-COORD
DATUM.m                82.960                : WELL DATUM
~Other Information Section
#----------------------------------------------------------------------
# Data exported from Jason, (C) Jason, 2015
# Input file: 2_WELLS_RPM_Pred/WDU-5.wll
#----------------------------------------------------------------------
~A DEPTH        TIME           VPVS           VS             DTS            S-IMP          RESIS          NPHI           VP             DT             P-IMP          GR             RHOB           4FACIES        3FACIES        
# ...
1344.4728      1255.9493      2.5724955      852.14514      357.68758      1976.4376      -999.25        0.55010003     2192.9351      138.99181      5086.732       77.039703      2.3196001      3              2              
1344.6252      1256.0869      2.6114029      844.61899      360.87841      1956.363       -999.25        0.54540002     2208.0891      138.0379       5112.389       77.438202      2.3153         3              2              
1344.7776      1256.2244      2.6566612      850.38889      358.44485      1965.199       -999.25        0.537          2238.1304      136.1851       5183.0625      77.594299      2.3158         3              2              
1344.9300      1256.362       2.5574356      903.8561       337.66012      2097.4895      -999.25        0.52740002     2282.9136      133.5136       5299.0985      77.179001      2.3212         3              2              
1345.0824      1256.4995      2.325694       990.61873      307.99629      2308.3743      -999.25        0.51810002     2334.2065      130.5797       5435.4335      77.404602      2.3286001      3              2              
1345.2348      1256.6371      2.273646       1046.8632      291.19965      2445.9197      -999.25        0.5086         2381.2854      127.9981       5561.016       78.5756        2.3353         3              2              
1345.3872      1256.7747      2.2393149      1077.657       282.85698      2520.4706      -999.25        0.50010002     2417.1006      126.1015       5656.257       80.141197      2.3401001      3              2              
1345.5396      1256.9122      2.221015       1094.2632      278.547        2562.8142      -999.25        0.495          2434.2327      125.214        5699.269       81.816399      2.3413         3              2              
1345.6920      1257.0498      2.2132101      1099.9216      277.11084      2570.9924      -999.25        0.493          2435.5203      125.1478       5693.0285      83.577904      2.3375         3              2              
1345.8444      1257.1873      2.2082326      1102.0982      276.56345      2568.7059      -999.25        0.49200001     2432.8667      125.2843       5670.282       85.337799      2.3307         3              2              
1345.9968      1257.3249      2.2026448      1105.5065      275.71133      2572.6359      -999.25        0.49219999     2433.6709      125.2429       5662.9085      86.723999      2.3268999      3              2              
1346.1492      1257.4625      2.1942254      1116.1924      273.07816      2602.6476      -999.25        0.49430001     2443.4294      124.7427       5697.1005      87.637802      2.3316001      3              2              
1346.3016      1257.6         2.174045       1144.573       266.33961      2687.3785      -999.25        0.4966         2481.6321      122.8224       5825.631       87.696899      2.3475         3              2              
1346.4540      1257.7376      2.1438517      1197.4454      254.63443      2844.3787      -999.25        0.49559999     2561.8699      118.9756       6083.9285      86.991997      2.3748         3              2              
1346.6064      1257.8751      2.1018604      1268.1316      240.46524      3061.6739      -999.25        0.4896         2665.0906      114.3676       6433.5285      85.935097      2.414          3              2              
1346.7588      1258.0139      2.0625337      1329.2405      229.34915      3266.7168      -999.25        0.48050001     2751.2651      110.7854       6763.16        84.551498      2.4582         3              2              
1346.9112      1258.1531      2.0558965      1353.6437      225.17159      3372.8645      -999.25        0.47189999     2795.1787      109.0449       6961.9515      82.362602      2.4907         3              2              
1347.0636      1258.2924      2.05777        1344.4901      226.71406      3358.6411      -999.25        0.46869999     2778.3372      109.7059       6940.842       79.445396      2.4982         3              2              
1347.2160      1258.4316      2.0745395      1294.2943      235.5876       3215.1175      -999.25        0.4716         2694.8149      113.1061       6689.608       77.119102      2.4823999      3              2              
1347.3684      1258.5708      2.1334002      1208.264       252.46413      2955.3283      -999.25        0.4804         2578.8701      118.1913       6316.684       76.015297      2.4493999      3              2              
1347.5208      1258.7101      2.2171703      1111.0024      274.58492      2668.2677      -999.25        0.49309999     2460.3901      123.8828       5902.2295      75.612198      2.3988999      3              2              
1347.6732      1258.8493      2.342594       977.22989      313.0002       2286.199       -999.25        0.50760001     2342.7305      130.1046       5470.744       75.119797      2.3352         3              2              
1347.8256      1258.9886      2.7335758      834.44153      366.40058      1898.6578      -999.25        0.5205         2233.1797      136.487        5079.1435      75.059502      2.2743999      3              2              
1347.9780      1259.1278      2.8392099      759.11307      401.69106      1694.3979      -999.25        0.5323         2146.804       141.9785       4791.6665      76.075996      2.232          3              2              
1348.1304      1259.2671      2.8673352      739.13218      412.38071      1633.3297      -999.25        0.54280001     2102.4084      144.97659      4648.6355      77.6595        2.2111001      3              2              
1348.2828      1259.4063      2.8484936      742.64137      410.4429       1638.1473      -999.25        0.54610002     2114.1106      144.1741       4663.5165      78.827499      2.2058999      3              2              
1348.4352      1259.5455      2.8502371      753.62738      404.45147      1666.3649      -999.25        0.53750002     2155.3477      141.4157       4762.8875      79.628197      2.2098         3              2              
1348.5876      1259.6848      2.8564079      773.27359      394.23063      1713.0812      -999.25        0.5205         2182.2117      139.6748       4842.328       80.664101      2.219          3              2              
1348.7400      1259.824       2.6643505      834.18136      365.96973      1859.6898      -999.25        0.5036         2209.4543      137.95261      4928.188       81.851898      2.2305         3              2              
1348.8924      1259.9633      2.4234386      932.20638      327.49573      2089.9973      -999.25        0.491          2268.9985      134.3324       5084.8255      82.552696      2.241          3              2              
1349.0448      1260.103       2.2893849      1016.3475      300.08175      2284.4983      -999.25        0.4799         2337.0881      130.4187       5252.8395      82.772903      2.2476001      3              2              
1349.1972      1260.2463      2.2221457      1066.8001      285.75821      2400.4885      -999.25        0.46810001     2377.4888      128.2025       5349.825       83.288902      2.2502         3              2              
1349.3496      1260.3896      2.1935708      1089.7545      279.70194      2453.9301      -999.25        0.4594         2395.1135      127.2591       5391.4005      84.155296      2.251          3              2              
1349.5020      1260.5329      2.1852704      1097.8921      277.62336      2472.9643      -999.25        0.45719999     2400.1511      126.992        5404.9         84.6744        2.2518999      3              2              
1349.6544      1260.6762      2.1810277      1104.8715      275.87134      2489.3888      -999.25        0.45989999     2405.2537      126.7226       5420.239       84.507599      2.2535         3              2              
1349.8068      1260.8195      2.1645985      1120.3662      272.06651      2526.6942      -999.25        0.4621         2423.5234      125.7673       5466.0145      84.2061        2.2553999      3              2              
