~VERSION INFORMATION
VERS.                  2.0 : CWLS LOG ASCII STANDARD VERSION 2.0
WRAP.                  NO  : DATA IS NOT WRAPPED
~Well Information Section
#MNEM.UNIT          VALUE/NAME                 DESCRIPTION
#----------------------------------------------------------------------
STRT.m                 636.7272 : START DEPTH
STOP.m                1627.9368 : STOP DEPTH
STEP.m                   0.1524 : STEP
NULL.                -999.25 : NULL VALUE
COMP.                                             : COMPANY
WELL.    WDU-5                                    : WELL
FLD .                                             : FIELD
LOC .           242698.6,       2583682.1         : LOCATION
CNTY.                                             : COUNTY
STAT.                                             : STATE
CTRY.                                             : COUNTRY
SRVC.    Jason                                    : SERVICE
DATE.                                             : DATE
API .                                             : API
~Curve Information Section
#MNEM.UNIT          API CODE                   DESCRIPTION
#----------------------------------------------------------------------
DEPTH.m                          : * MD (TRACK/INDEX)
TIME .ms                         : TIME 
VPVS .none                       : VP/VS
VS   .m/s                        : S-VELOCITY
DTS  .us/ft                      : S-SONIC
S-IMP.g/cm^3*m/s                 : S-IMPEDANCE
RESIS.ohm*m                      : RESISTIVITY
NPHI .none                       : POROSITY NEUTRON
VP   .m/s                        : P-VELOCITY
DT   .us/ft                      : P-SONIC
P-IMP.g/cm^3*m/s                 : P-IMPEDANCE
GR   .gAPI                       : GAMMA RAY
RHOB .g/cm^3                     : DENSITY
4FACIES.none                       : 4FACIES
3FACIES.none                       : SANDSHALECOAL
~Parameter Information Section
#MNEM.UNIT          API CODE                   DESCRIPTION
#----------------------------------------------------------------------
XCRD .m                242698.600            : WELL POSITION X-COORD
YCRD .m                2583682.100           : WELL POSITION Y-COORD
DATUM.m                82.960                : WELL DATUM
~Other Information Section
#----------------------------------------------------------------------
# Data exported from Jason, (C) Jason, 2015
# Input file: 2_WELLS_RPM_Pred/WDU-5.wll
#----------------------------------------------------------------------
~A DEPTH        TIME           VPVS           VS             DTS            S-IMP          RESIS          NPHI           VP             DT             P-IMP          GR             RHOB           4FACIES        3FACIES        
# ...
1295.0952      1210.7402      2.9205336      685.46121      444.67826      968.13802      -999.25        0.62879997     2000.6316      152.35189      2822.0907      29.9447        1.4106         0              0              
1295.2476      1210.8948      2.9534731      676.94131      450.26694      922.10624      -999.25        0.63840002     1998.0779      152.54661      2716.9865      25.032101      1.3598         0              0              
1295.4000      1211.0494      2.9767243      674.54067      451.86306      912.79184      -999.25        0.6397         2004.2968      152.07329      2708.2055      23.8214        1.3512         0              0              
1295.5524      1211.204       2.9883803      677.83167      449.67576      945.86544      -999.25        0.6336         2023.1454      150.6565       2818.8488      27.7714        1.3933         0              0              
1295.7048      1211.3586      2.9946858      691.65782      440.72521      1026.2525      -999.25        0.61849999     2064.01        147.67371      3056.7987      36.044701      1.481          0              0              
1295.8572      1211.5131      2.94542        723.74128      421.31973      1154.9425      -999.25        0.5959         2123.9797      143.5042       3391.146       46.164101      1.5966         0              0              
1296.0096      1211.6677      2.7822272      807.12916      378.75726      1387.2249      -999.25        0.57499999     2190.7727      139.129        3766.3763      56.1656        1.7192         0              0              
1296.1620      1211.8223      2.3519249      938.89396      325.65622      1735.2938      -999.25        0.56089997     2252.1809      135.33549      4160.2285      65.427101      1.8472         0              0              
1296.3144      1211.9769      2.2640007      1008.9686      302.12779      2002.3869      -999.25        0.55330002     2303.7485      132.30611      4562.3435      73.019501      1.9804         0              0              
1296.4668      1212.1315      2.2932835      1018.0896      299.38433      2121.3473      -999.25        0.54820001     2336.042       130.4771       4875.787       77.485497      2.0872         3              0              
1296.6192      1212.2861      2.2988283      1014.2158      300.52922      2170.2581      -999.25        0.54720002     2335.2974      130.51871      4999.4045      78.301903      2.1408         3              2              
1296.7716      1212.4407      2.3128847      990.90816      307.66041      2140.739       -999.25        0.55180001     2311.0432      131.8885       4986.0755      76.330902      2.1575         3              2              
1296.9240      1212.5952      2.4599079      928.85787      328.47855      2011.0195      -999.25        0.55839998     2290.5032      133.0712       4960.3135      73.471397      2.1656001      3              2              
1297.0764      1212.7458      2.6296154      874.3188       348.6999       1887.5194      -999.25        0.56029999     2277.4431      133.8343       4922.693       71.009499      2.1615         3              2              
1297.2288      1212.8867      2.6534318      856.05418      356.05517      1833.1274      -999.25        0.55879998     2269.4546      134.3054       4861.1715      68.817902      2.142          3              2              
1297.3812      1213.0276      2.6801902      849.81962      358.66628      1806.9707      -999.25        0.55669999     2279.3132      133.7245       4842.401       66.546898      2.1245         2              2              
1297.5336      1213.1686      2.7126832      849.70152      358.71485      1805.0073      -999.25        0.55409998     2299.9539      132.5244       4887.8615      64.819504      2.1252         2              1              
1297.6860      1213.3095      2.7007077      864.32986      352.68589      1847.0594      -999.25        0.55089998     2318.4084      131.4695       4956.7575      64.586601      2.138          2              1              
1297.8384      1213.4504      2.5867041      903.56603      337.47194      1943.591       -999.25        0.54729998     2339.7649      130.2695       5034.0045      64.653801      2.1515         2              1              
1297.9908      1213.5914      2.5023062      939.56924      324.43676      2033.67        -999.25        0.54329997     2362.2705      129.0284       5108.6465      63.902302      2.1626001      2              1              
1298.1432      1213.7323      2.4791194      958.21109      318.09969      2083.5875      -999.25        0.53619999     2373.6914      128.40759      5162.304       63.312599      2.1748         2              1              
1298.2956      1213.8732      2.4449207      972.72433      313.35726      2126.7576      -999.25        0.52899998     2377.6443      128.19411      5199.9085      64.130203      2.187          2              1              
1298.4480      1214.0142      2.419759       980.14101      310.97607      2156.114       -999.25        0.5262         2378.55        128.14529      5228.529       65.327103      2.1982         2              1              
1298.6004      1214.1551      2.4277597      970.00252      314.25055      2144.773       -999.25        0.52969998     2368.7935      128.6731       5233.612       65.666801      2.2093999      2              1              
1298.7528      1214.296       2.5230703      929.16308      328.20078      2063.2442      -999.25        0.53289998     2350.9395      129.6503       5218.38        65.630501      2.2197         2              1              
1298.9052      1214.4369      2.6309956      896.88327      339.86262      1992.4853      -999.25        0.53500003     2336.6099      130.4454       5200.5925      66.051498      2.2257         2              1              
1299.0576      1214.5779      2.5942042      903.74903      337.30242      2007.6998      -999.25        0.53640002     2332.7524      130.6611       5184.776       67.022102      2.2226001      2              1              
1299.2100      1214.7188      2.4842531      938.99912      324.68869      2080.2763      -999.25        0.54000002     2336.4321      130.45531      5175.1975      68.200401      2.215          2              1              
1299.3624      1214.8597      2.4093528      971.18892      313.86937      2147.4107      -999.25        0.54250002     2344.7434      129.9929       5182.8205      68.937798      2.2103999      2              1              
1299.5148      1215.0004      2.3850472      988.87085      308.23607      2183.9446      -999.25        0.54210001     2360.6897      129.11481      5213.583       68.988899      2.2085         2              1              
1299.6672      1215.1411      2.381575       1001.2182      304.43444      2207.2512      -999.25        0.53680003     2382.9348      127.9095       5253.895       69.069504      2.2048         2              1              
1299.8196      1215.2819      2.3669849      1014.9289      300.32532      2236.7125      -999.25        0.52950001     2401.7397      126.908        5291.993       69.764503      2.2033999      2              1              
1299.9720      1215.4226      2.3501293      1023.781       297.72096      2265.7438      -999.25        0.52530003     2410.9653      126.4224       5333.2965      70.368301      2.2121001      2              1              
1300.1244      1215.5633      2.3517248      1022.814       298.00256      2276.8492      -999.25        0.52600002     2408.7112      126.5407       5361.3095      69.9496        2.2258         2              1              
1300.2768      1215.7041      2.3606185      1014.3944      300.47925      2267.8046      -999.25        0.52810001     2393.9868      127.319        5352.715       69.234001      2.2358999      2              1              
1300.4292      1215.8448      2.3631541      1002.7843      303.95863      2244.0327      -999.25        0.52689999     2370.2632      128.59331      5306.782       69.187401      2.2388999      2              1              
