~VERSION INFORMATION
VERS.                  2.0 : CWLS LOG ASCII STANDARD VERSION 2.0
WRAP.                  NO  : DATA IS NOT WRAPPED
~Well Information Section
#MNEM.UNIT          VALUE/NAME                 DESCRIPTION
#----------------------------------------------------------------------
STRT.m                 636.7272 : START DEPTH
STOP.m                1627.9368 : STOP DEPTH
STEP.m                   0.1524 : STEP
NULL.                -999.25 : NULL VALUE
COMP.                                             : COMPANY
WELL.    WDU-5                                    : WELL
FLD .                                             : FIELD
LOC .           242698.6,       2583682.1         : LOCATION
CNTY.                                             : COUNTY
STAT.                                             : STATE
CTRY.                                             : COUNTRY
SRVC.    Jason                                    : SERVICE
DATE.                                             : DATE
API .                                             : API
~Curve Information Section
#MNEM.UNIT          API CODE                   DESCRIPTION
#----------------------------------------------------------------------
DEPTH.m                          : * MD (TRACK/INDEX)
TIME .ms                         : TIME 
VPVS .none                       : VP/VS
VS   .m/s                        : S-VELOCITY
DTS  .us/ft                      : S-SONIC
S-IMP.g/cm^3*m/s                 : S-IMPEDANCE
RESIS.ohm*m                      : RESISTIVITY
NPHI .none                       : POROSITY NEUTRON
VP   .m/s                        : P-VELOCITY
DT   .us/ft                      : P-SONIC
P-IMP.g/cm^3*m/s                 : P-IMPEDANCE
GR   .gAPI                       : GAMMA RAY
RHOB .g/cm^3                     : DENSITY
4FACIES.none                       : 4FACIES
3FACIES.none                       : SANDSHALECOAL
~Parameter Information Section
#MNEM.UNIT          API CODE                   DESCRIPTION
#----------------------------------------------------------------------
XCRD .m                242698.600            : WELL POSITION X-COORD
YCRD .m                2583682.100           : WELL POSITION Y-COORD
DATUM.m                82.960                : WELL DATUM
~Other Information Section
#----------------------------------------------------------------------
# Data exported from Jason, (C) Jason, 2015
# Input file: 2_WELLS_RPM_Pred/WDU-5.wll
#----------------------------------------------------------------------
~A DEPTH        TIME           VPVS           VS             DTS            S-IMP          RESIS          NPHI           VP             DT             P-IMP          GR             RHOB           4FACIES        3FACIES        
# ...
1481.6328      1376.6246      3.0971674      644.47325      472.94912      784.89884      -999.25        0.53969997     1995.7518      152.7244       2430.0275      16.874399      1.2176         0              0              
1481.7852      1376.8158      3.079536       649.85996      469.02767      801.6144       -999.25        0.54070002     2001.1987      152.30871      2468.4788      17.122101      1.2335         0              0              
1481.9376      1377.0069      3.0760255      654.51244      465.69267      818.82277      -999.25        0.53920001     2014.3556      151.3139       2520.1602      17.405701      1.2511         0              0              
1482.0900      1377.198       3.0777267      658.15725      463.11236      837.17963      -999.25        0.53750002     2025.7068      150.466        2575.281       17.8794        1.2713         0              0              
1482.2424      1377.3892      3.0731947      662.9964       459.73561      866.40575      -999.25        0.5395         2034.2174      149.83649      2655.0605      18.922501      1.3052         0              0              
1482.3948      1377.5803      3.0597841      676.74736      450.44299      929.33617      -999.25        0.54610002     2061.5098      147.8528       2827.5667      21.9687        1.3716         0              0              
1482.5472      1377.7714      2.9966191      706.39425      431.6438       1051.1106      -999.25        0.55330002     2114.8354      144.12469      3136.724       28.540501      1.4832         0              0              
1482.6996      1377.9626      2.9399802      738.92537      412.55736      1205.778       -999.25        0.55690002     2180.6958      139.7719       3558.6775      38.591202      1.6319         0              0              
1482.8520      1378.1355      2.9134058      803.71754      379.97505      1439.4377      -999.25        0.55720001     2258.6326      134.9489       4047.4698      50.240799      1.792          0              0              
1483.0044      1378.3027      2.4925022      913.68516      334.36242      1792.0813      -999.25        0.55760002     2349.917       129.7067       4593.383       61.0802        1.9547         3              0              
1483.1568      1378.4699      2.469057       1003.5752      303.87426      2135.9312      -999.25        0.55860001     2442.9006      124.7697       5194.584       70.295799      2.1263999      3              2              
1483.3092      1378.6372      2.2914198      1101.5904      277.13768      2515.2292      -999.25        0.5564         2532.771       120.3425       5796.753       77.651901      2.2887         3              2              
1483.4616      1378.8044      2.1729685      1189.7502      256.29437      2862.1478      -999.25        0.54869998     2603.1724      117.0879       6257.506       82.589699      2.4038         3              2              
1483.6140      1378.9716      2.1436503      1227.1986      248.37939      3024.9406      -999.25        0.53939998     2636.9817      115.5867       6505.961       84.504997      2.4672         3              2              
1483.7664      1379.1389      2.1363356      1233.1028      247.18135      3084.043       -999.25        0.53289998     2640.9846      115.4115       6601.9335      84.161499      2.4998         3              2              
1483.9188      1379.3061      2.1390628      1226.1098      248.59541      3077.4183      -999.25        0.52990001     2622.4702      116.2263       6585.285       83.1595        2.5111001      3              2              
1484.0712      1379.4733      2.1431115      1215.1503      250.83502      3037.1297      -999.25        0.52810001     2601.9392      117.1434       6505.6285      82.792702      2.5003         3              2              
1484.2236      1379.6405      2.1432852      1209.7505      251.95295      2993.4085      -999.25        0.5273         2591.5325      117.6138       6414.043       83.363403      2.475          3              2              
1484.3760      1379.8078      2.1428832      1206.4702      252.63804      2946.7468      -999.25        0.53009999     2587.23        117.8094       6319.309       84.852699      2.4425         3              2              
1484.5284      1379.975       2.147505       1201.9881      253.5806       2893.3362      -999.25        0.53729999     2580.1252      118.1338       6209.8455      86.323303      2.4068         3              2              
1484.6808      1380.1422      2.1576243      1201.0482      253.77838      2848.4453      -999.25        0.54479998     2587.0916      117.8157       6137.8745      86.727501      2.3725         3              2              
1484.8332      1380.3095      2.1712233      1209.5738      251.99531      2838.0458      -999.25        0.54799998     2624.2539      116.1473       6155.712       86.1427        2.3457         3              2              
1484.9856      1380.4767      2.1756344      1230.3346      247.75014      2867.9762      -999.25        0.54650003     2674.4021      113.9694       6231.8915      86.035896      2.3302         3              2              
1485.1380      1380.6418      2.1629295      1258.933       242.12857      2932.4054      -999.25        0.54280001     2722.3669      111.9614       6339.5755      86.295799      2.3287         3              2              
1485.2904      1380.8005      2.1341909      1292.7484      235.79968      3024.8742      -999.25        0.53799999     2757.2881      110.5434       6451.778       85.023697      2.3398999      3              2              
1485.4428      1380.9592      2.1000701      1322.3323      230.51363      3112.8693      -999.25        0.53250003     2781.801       109.5693       6552.254       82.055702      2.3553999      3              2              
1485.5952      1381.1179      2.0829778      1329.8832      229.19308      3149.7631      -999.25        0.52770001     2780.3726      109.6256       6577.527       79.706497      2.3657         3              2              
1485.7476      1381.2766      2.0849884      1317.6787      231.32686      3129.3626      -999.25        0.52700001     2749.9072      110.8401       6531.305       79.332802      2.3751001      3              2              
1485.9000      1381.4353      2.1019787      1287.5544      236.74939      3077.1185      -999.25        0.53140002     2707.5332      112.5748       6470.192       79.858002      2.3897         3              2              
1486.0524      1381.5941      2.1280023      1253.3009      243.22064      3011.8273      -999.25        0.537          2666.4778      114.3081       6408.879       80.933197      2.4035         3              2              
1486.2048      1381.7528      2.145181       1227.131       248.39324      2955.454       -999.25        0.53909999     2627.8401      115.9888       6329.941       84.0653        2.4088         3              2              
1486.3572      1381.9115      2.1412977      1212.6192      251.35875      2918.7168      -999.25        0.5377         2594.6985      117.4703       6248.034       88.888199      2.408          3              2              
1486.5096      1382.0702      2.1296424      1200.8789      253.81722      2879.1485      -999.25        0.53600001     2561.3079      119.0017       6140.992       93.000801      2.3976001      3              2              
1486.6620      1382.2289      2.1242828      1176.1886      259.17226      2783.8982      -999.25        0.53369999     2508.5779      121.5031       5938.807       95.275597      2.3673999      3              2              
1486.8144      1382.3876      2.1533543      1139.4174      267.54291      2635.3308      -999.25        0.52920002     2444.2446      124.7011       5657.693       95.729797      2.3147         3              2              
1486.9668      1382.5464      2.1637217      1109.1218      274.8276       2493.8909      -999.25        0.52569997     2401.3708      126.9275       5399.7225      93.888901      2.2486001      3              2              
