~VERSION INFORMATION
VERS.                  2.0 : CWLS LOG ASCII STANDARD VERSION 2.0
WRAP.                  NO  : DATA IS NOT WRAPPED
~Well Information Section
#MNEM.UNIT          VALUE/NAME                 DESCRIPTION
#----------------------------------------------------------------------
STRT.m                 636.7272 : START DEPTH
STOP.m                1627.9368 : STOP DEPTH
STEP.m                   0.1524 : STEP
NULL.                -999.25 : NULL VALUE
COMP.                                             : COMPANY
WELL.    WDU-5                                    : WELL
FLD .                                             : FIELD
LOC .           242698.6,       2583682.1         : LOCATION
CNTY.                                             : COUNTY
STAT.                                             : STATE
CTRY.                                             : COUNTRY
SRVC.    Jason                                    : SERVICE
DATE.                                             : DATE
API .                                             : API
~Curve Information Section
#MNEM.UNIT          API CODE                   DESCRIPTION
#----------------------------------------------------------------------
DEPTH.m                          : * MD (TRACK/INDEX)
TIME .ms                         : TIME 
VPVS .none                       : VP/VS
VS   .m/s                        : S-VELOCITY
DTS  .us/ft                      : S-SONIC
S-IMP.g/cm^3*m/s                 : S-IMPEDANCE
RESIS.ohm*m                      : RESISTIVITY
NPHI .none                       : POROSITY NEUTRON
VP   .m/s                        : P-VELOCITY
DT   .us/ft                      : P-SONIC
P-IMP.g/cm^3*m/s                 : P-IMPEDANCE
GR   .gAPI                       : GAMMA RAY
RHOB .g/cm^3                     : DENSITY
4FACIES.none                       : 4FACIES
3FACIES.none                       : SANDSHALECOAL
~Parameter Information Section
#MNEM.UNIT          API CODE                   DESCRIPTION
#----------------------------------------------------------------------
XCRD .m                242698.600            : WELL POSITION X-COORD
YCRD .m                2583682.100           : WELL POSITION Y-COORD
DATUM.m                82.960                : WELL DATUM
~Other Information Section
#----------------------------------------------------------------------
# Data exported from Jason, (C) Jason, 2015
# Input file: 2_WELLS_RPM_Pred/WDU-5.wll
#----------------------------------------------------------------------
~A DEPTH        TIME           VPVS           VS             DTS            S-IMP          RESIS          NPHI           VP             DT             P-IMP          GR             RHOB           4FACIES        3FACIES        
# ...
1503.5784      1399.4265      3.0051588      663.20285      459.58819      858.21822      -999.25        0.64179999     1993.2865      152.91329      2580.3093      15.75          1.2945         0              0              
1503.7308      1399.58        2.9985489      664.16361      458.92312      862.66198      -999.25        0.65329999     1991.7091      153.0344       2587.031       15.4611        1.2989         0              0              
1503.8832      1399.7259      2.9972179      664.77639      458.50008      866.73809      -999.25        0.66360003     1992.1713      152.9989       2596.596       15.087         1.3034         0              0              
1504.0356      1399.8717      2.9977911      665.38364      458.08164      876.37399      -999.25        0.66769999     1995.0334      152.7794       2626.661       15.3195        1.3166         0              0              
1504.1880      1400.0175      3.0168361      665.61007      457.92576      890.50046      -999.25        0.66780001     2007.7439      151.81219      2686.1608      15.9782        1.3379         0              0              
1504.3404      1400.1633      3.0505324      668.4046       456.01584      912.32562      -999.25        0.66570002     2035.0242      149.77709      2776.7905      16.950399      1.3645         0              0              
1504.4928      1400.3091      3.0621224      679.87716      448.3515       956.86887      -999.25        0.65899998     2077.5693      146.7099       2921.0625      19.327101      1.406          0              0              
1504.6452      1400.4549      3.052367       696.0955       437.9008       1027.6239      -999.25        0.64160001     2130.3723      143.07359      3140.3818      24.320601      1.4741         0              0              
1504.7976      1400.6007      3.1047369      707.75336      430.66493      1115.6802      -999.25        0.62900001     2197.0847      138.72929      3457.5523      31.3531        1.5737         0              0              
1504.9500      1400.7465      3.1502776      724.97003      420.4882       1227.0231      -999.25        0.62059999     2272.5154      134.1245       3852.141       39.026699      1.6951         0              0              
1505.1024      1400.8924      3.0697226      782.26096      390.30414      1424.2101      -999.25        0.60979998     2351.3948      129.6252       4280.714       46.682098      1.8205         0              0              
1505.2548      1401.0382      2.732179       869.28468      351.08187      1693.7043      -999.25        0.59219998     2426.97        125.5887       4716.088       54.439301      1.9432         0              0              
1505.4072      1401.184       2.6936874      941.36218      323.93931      1939.0471      -999.25        0.58099997     2504.655       121.6934       5162.345       61.793098      2.0611001      3              0              
1505.5596      1401.3298      2.4927846      1033.9849      295.28536      2231.1151      -999.25        0.56889999     2578.3137      118.2168       5570.9625      67.962601      2.1607         3              2              
1505.7120      1401.4756      2.2993014      1148.1341      265.7916       2561.7681      -999.25        0.55260003     2647.019       115.1484       5900.9995      71.743103      2.2293         3              2              
1505.8644      1401.6214      2.1724461      1246.371       244.70429      2832.0224      -999.25        0.53509998     2713.4988      112.3273       6167.24        73.185898      2.2728         3              2              
1506.0168      1401.7544      2.0986304      1321.1887      230.77124      3042.5319      -999.25        0.52079999     2778.3704      109.7046       6398.5865      73.562202      2.303          3              2              
1506.1692      1401.869       2.0605946      1372.0009      222.18202      3183.4346      -999.25        0.50629997     2832.6873      107.601        6572.6845      74.204201      2.3203         3              2              
1506.3216      1401.9837      2.0447082      1402.7129      217.30077      3261.6582      -999.25        0.4921         2871.1919      106.158        6676.383       74.915298      2.3253         3              2              
1506.4740      1402.0983      2.0356553      1421.8821      214.36709      3303.5028      -999.25        0.47639999     2895.0847      105.2819       6726.15        74.9412        2.3233         2              2              
1506.6264      1402.213       2.0260722      1434.3756      212.49793      3325.4734      -999.25        0.46000001     2908.136       104.8094       6742.8045      74.489304      2.3186001      2              1              
1506.7788      1402.3276      2.0178285      1442.4178      211.31241      3330.1025      -999.25        0.4409         2912.3376      104.6582       6724.296       74.153099      2.3088999      2              1              
1506.9312      1402.4423      2.0102629      1448.2152      210.46625      3325.7677      -999.25        0.4226         2910.5967      104.7208       6683.021       74.101097      2.2961001      2              1              
1507.0836      1402.557       2.0075242      1457.3752      209.14499      3333.7339      -999.25        0.405          2919.7358      104.393        6679.4795      74.053101      2.2877         2              1              
1507.2360      1402.6716      2.0064367      1479.5309      206.02293      3383.7964      -999.25        0.3863         2966.4551      102.7489       6784.58        73.980202      2.2871001      2              1              
1507.3884      1402.7863      2.0097102      1507.1337      202.24618      3455.0679      -999.25        0.38069999     3033.7476      100.4698       6954.2595      74.101898      2.2923         2              1              
1507.5408      1402.9009      2.0083222      1517.4492      200.86348      3511.6826      -999.25        0.3845         3056.0005      99.738203      7059.667       74.147697      2.3101001      2              1              
1507.6932      1403.0156      2.006855       1515.0861      201.17722      3579.1145      -999.25        0.3854         3034.2881      100.4519       7170.3265      73.362602      2.3631001      2              1              
1507.8456      1403.1302      1.995802       1504.4795      202.59688      3641.6464      -999.25        0.38730001     3019.167       100.955        7308.196       71.734398      2.4206001      3              1              
1507.9980      1403.2449      2.0371177      1460.7789      208.72523      3556.7623      -999.25        0.4082         2989.8123      101.9462       7281.09        70.626701      2.4353         3              2              
1508.1504      1403.3596      2.094865       1395.1903      218.52079      3401.0224      -999.25        0.43939999     2908.2056      104.8069       7082.6435      70.5298        2.4353999      3              2              
1508.3028      1403.4742      2.0713967      1366.7378      223.01443      3366.1598      -999.25        0.46419999     2815.0881      108.2737       6940.6         70.364899      2.4655         3              2              
1508.4552      1403.5889      2.0228744      1359.8857      224.13666      3373.219       -999.25        0.48840001     2758.8279      110.4817       6848.514       69.672897      2.4823999      3              2              
1508.6076      1403.7035      2.0242756      1348.45        226.04267      3307.0073      -999.25        0.5126         2733.3503      111.5115       6705.182       69.877502      2.4531001      3              2              
1508.7600      1403.8184      2.0565743      1329.1001      229.33515      3210.7996      -999.25        0.53210002     2729.3169      111.6763       6589.9355      71.369499      2.4145         3              2              
1508.9124      1403.9332      2.0774826      1315.1253      231.76643      3151.8541      -999.25        0.5402         2731.7236      111.5779       6547.122       72.567596      2.3967         3              2              
