~VERSION INFORMATION
VERS.                  2.0 : CWLS LOG ASCII STANDARD VERSION 2.0
WRAP.                  NO  : DATA IS NOT WRAPPED
~Well Information Section
#MNEM.UNIT          VALUE/NAME                 DESCRIPTION
#----------------------------------------------------------------------
STRT.m                 636.7272 : START DEPTH
STOP.m                1627.9368 : STOP DEPTH
STEP.m                   0.1524 : STEP
NULL.                -999.25 : NULL VALUE
COMP.                                             : COMPANY
WELL.    WDU-5                                    : WELL
FLD .                                             : FIELD
LOC .           242698.6,       2583682.1         : LOCATION
CNTY.                                             : COUNTY
STAT.                                             : STATE
CTRY.                                             : COUNTRY
SRVC.    Jason                                    : SERVICE
DATE.                                             : DATE
API .                                             : API
~Curve Information Section
#MNEM.UNIT          API CODE                   DESCRIPTION
#----------------------------------------------------------------------
DEPTH.m                          : * MD (TRACK/INDEX)
TIME .ms                         : TIME 
VPVS .none                       : VP/VS
VS   .m/s                        : S-VELOCITY
DTS  .us/ft                      : S-SONIC
S-IMP.g/cm^3*m/s                 : S-IMPEDANCE
RESIS.ohm*m                      : RESISTIVITY
NPHI .none                       : POROSITY NEUTRON
VP   .m/s                        : P-VELOCITY
DT   .us/ft                      : P-SONIC
P-IMP.g/cm^3*m/s                 : P-IMPEDANCE
GR   .gAPI                       : GAMMA RAY
RHOB .g/cm^3                     : DENSITY
4FACIES.none                       : 4FACIES
3FACIES.none                       : SANDSHALECOAL
~Parameter Information Section
#MNEM.UNIT          API CODE                   DESCRIPTION
#----------------------------------------------------------------------
XCRD .m                242698.600            : WELL POSITION X-COORD
YCRD .m                2583682.100           : WELL POSITION Y-COORD
DATUM.m                82.960                : WELL DATUM
~Other Information Section
#----------------------------------------------------------------------
# Data exported from Jason, (C) Jason, 2015
# Input file: 2_WELLS_RPM_Pred/WDU-5.wll
#----------------------------------------------------------------------
~A DEPTH        TIME           VPVS           VS             DTS            S-IMP          RESIS          NPHI           VP             DT             P-IMP          GR             RHOB           4FACIES        3FACIES        
# ...
1388.3640      1293.5404      3.0557647      658.16038      463.10899      809.79266      -999.25        0.64859998     2010.3845      151.61279      2473.778       18.294701      1.2305         3              2              
1388.5164      1293.6911      3.0753246      659.33273      462.28644      808.47336      -999.25        0.65149999     2026.6334      150.3972       2484.45        19.1031        1.2259         3              2              
1388.6688      1293.8418      3.0996614      663.38547      459.46514      817.39213      -999.25        0.64569998     2056.0308      148.2468       2530.7685      20.560699      1.2309         3              2              
1388.8212      1293.9926      3.1111631      670.57103      454.54699      846.10197      -999.25        0.63429999     2084.51        146.22141      2625.6487      23.0695        1.2596         3              2              
1388.9736      1294.1433      3.0961392      683.76614      445.80045      907.87757      -999.25        0.62519997     2111.3384      144.3634       2799.6348      27.7897        1.326          3              2              
1389.1260      1294.2941      3.045857       706.94931      431.23339      1010.9126      -999.25        0.61479998     2151.7156      141.6544       3071.574       34.819099      1.4275         3              2              
1389.2784      1294.4448      2.9781651      741.83295      411.01366      1144.1977      -999.25        0.59109998     2204.3396      138.27271      3402.1775      43.313         1.5434         3              2              
1389.4308      1294.5956      2.8239943      814.49005      374.99061      1349.5426      -999.25        0.56050003     2254.5881      135.19099      3737.2052      52.113701      1.6576         3              2              
1389.5832      1294.7463      2.4576689      918.29153      332.5072       1629.076       -999.25        0.53210002     2301.2874      132.4476       4074.4295      60.4519        1.7705         3              2              
1389.7356      1294.897       2.3754481      991.04634      307.6431       1862.6348      -999.25        0.50620002     2350.1655      129.69299      4414.551       67.358803      1.8784         3              2              
1389.8880      1295.0478      2.2905738      1056.4072      288.71345      2067.3841      -999.25        0.4822         2408.5171      126.5509       4722.861       72.1008        1.9609         3              2              
1390.0404      1295.1985      2.1660495      1136.4939      268.3801       2282.3153      -999.25        0.4612         2469.5398      123.4238       4959.33        74.412598      2.0082         3              2              
1390.1928      1295.3322      2.0913401      1200.5083      253.95028      2439.3471      -999.25        0.44749999     2518.5461      121.0222       5116.4265      74.554604      2.0315         3              2              
1390.3452      1295.4581      2.0610478      1237.0207      246.4127       2529.3265      -999.25        0.44170001     2553.2812      119.3758       5220.694       73.612999      2.0447         3              2              
1390.4976      1295.584       2.050271       1256.8192      242.52113      2579.8201      -999.25        0.44220001     2578.5625      118.2054       5292.7575      73.141602      2.0526001      2              1              
1390.6500      1295.7099      2.0475168      1269.776       240.04476      2609.388       -999.25        0.4454         2599.8684      117.2367       5343.2495      73.419098      2.0552         2              1              
1390.8024      1295.8358      2.0436079      1279.1927      238.27648      2626.247       -999.25        0.4463         2615.7947      116.5229       5370.7495      73.560699      2.0532         2              1              
1390.9548      1295.9617      2.03866        1284.2253      237.34168      2629.7369      -999.25        0.44420001     2619.5603      116.3554       5363.55        73.436302      2.0475         2              1              
1391.1072      1296.0877      2.0327047      1287.4996      236.73812      2627.7988      -999.25        0.43990001     2615.1597      116.5512       5338.064       73.687798      2.0412         2              1              
1391.2596      1296.2136      2.0252185      1292.3889      235.84308      2629.067       -999.25        0.43419999     2617.2954      116.4561       5325.149       73.922096      2.0346         2              1              
1391.4120      1296.3395      2.020888       1294.5845      235.44234      2627.2404      -999.25        0.42879999     2619.574       116.3548       5314.0675      73.356102      2.0286         2              1              
1391.5644      1296.4654      2.0218677      1290.5579      236.17851      2612.7523      -999.25        0.42629999     2611.1675      116.7294       5285.525       72.517899      2.0242         2              1              
1391.7168      1296.5913      2.0270357      1285.4303      237.11921      2597.7694      -999.25        0.42680001     2598.1355      117.3149       5253.9495      71.890503      2.0222         2              1              
1391.8692      1296.7173      2.0153587      1293.8264      235.58778      2617.3567      -999.25        0.42500001     2605.2686      116.9937       5268.895       70.760696      2.0224         2              1              
1392.0216      1296.8432      2.0009144      1321.3622      230.69036      2684.8099      -999.25        0.41749999     2640.3716      115.4383       5363.387       68.700401      2.0313         2              1              
1392.1740      1296.9691      1.9847105      1360.7997      224.0151       2789.6694      -999.25        0.4039         2700.9399      112.8496       5535.5765      66.572098      2.0495         2              1              
1392.3264      1297.095       1.977143       1402.4056      217.3627       2909.8297      -999.25        0.38679999     2772.4263      109.9398       5751.121       64.805298      2.0743999      2              1              
1392.4788      1297.2209      1.9736651      1440.9926      211.53883      3027.6133      -999.25        0.37270001     2845.3618      107.1217       5979.243       62.944698      2.1013999      2              1              
1392.6312      1297.3459      1.9685391      1473.01        206.93376      3128.2562      -999.25        0.3628         2901.8098      105.0379       6167.5065      61.058399      2.1253999      2              1              
1392.7836      1297.4679      1.9697413      1478.3492      206.17655      3148.6931      -999.25        0.3583         2923.9541      104.2424       6224.5135      60.001099      2.1288         2              1              
1392.9360      1297.59        1.986515       1459.3183      208.87623      3085.9381      -999.25        0.36039999     2902.0195      105.0303       6138.932       59.998501      2.1153999      2              1              
1393.0884      1297.712       2.0007482      1421.6124      214.42983      2975.964       -999.25        0.3734         2846.6853      107.0719       5958.6815      60.501499      2.0932         2              1              
1393.2408      1297.834       2.0138529      1376.01        221.54167      2840.3385      -999.25        0.39160001     2770.4783      110.0171       5721.315       60.9454        2.0651001      2              1              
1393.3932      1297.9561      2.0273571      1330.009       229.20283      2696.1261      -999.25        0.40979999     2693.5933      113.1574       5459.375       61.258801      2.0268         2              1              
1393.5456      1298.0781      2.0462648      1279.8156      238.21188      2554.3766      -999.25        0.42340001     2634.2673      115.7058       5252.729       61.634399      1.994          2              1              
1393.6980      1298.2001      2.126216       1227.9071      248.28407      2427.772       -999.25        0.43130001     2599.106       117.2711       5134.274       62.329399      1.9754         2              1              
