~VERSION INFORMATION
VERS.                  2.0 : CWLS LOG ASCII STANDARD VERSION 2.0
WRAP.                  NO  : DATA IS NOT WRAPPED
~Well Information Section
#MNEM.UNIT          VALUE/NAME                 DESCRIPTION
#----------------------------------------------------------------------
STRT.m                 636.7272 : START DEPTH
STOP.m                1627.9368 : STOP DEPTH
STEP.m                   0.1524 : STEP
NULL.                -999.25 : NULL VALUE
COMP.                                             : COMPANY
WELL.    WDU-5                                    : WELL
FLD .                                             : FIELD
LOC .           242698.6,       2583682.1         : LOCATION
CNTY.                                             : COUNTY
STAT.                                             : STATE
CTRY.                                             : COUNTRY
SRVC.    Jason                                    : SERVICE
DATE.                                             : DATE
API .                                             : API
~Curve Information Section
#MNEM.UNIT          API CODE                   DESCRIPTION
#----------------------------------------------------------------------
DEPTH.m                          : * MD (TRACK/INDEX)
TIME .ms                         : TIME 
VPVS .none                       : VP/VS
VS   .m/s                        : S-VELOCITY
DTS  .us/ft                      : S-SONIC
S-IMP.g/cm^3*m/s                 : S-IMPEDANCE
RESIS.ohm*m                      : RESISTIVITY
NPHI .none                       : POROSITY NEUTRON
VP   .m/s                        : P-VELOCITY
DT   .us/ft                      : P-SONIC
P-IMP.g/cm^3*m/s                 : P-IMPEDANCE
GR   .gAPI                       : GAMMA RAY
RHOB .g/cm^3                     : DENSITY
4FACIES.none                       : 4FACIES
3FACIES.none                       : SANDSHALECOAL
~Parameter Information Section
#MNEM.UNIT          API CODE                   DESCRIPTION
#----------------------------------------------------------------------
XCRD .m                242698.600            : WELL POSITION X-COORD
YCRD .m                2583682.100           : WELL POSITION Y-COORD
DATUM.m                82.960                : WELL DATUM
~Other Information Section
#----------------------------------------------------------------------
# Data exported from Jason, (C) Jason, 2015
# Input file: 2_WELLS_RPM_Pred/WDU-5.wll
#----------------------------------------------------------------------
~A DEPTH        TIME           VPVS           VS             DTS            S-IMP          RESIS          NPHI           VP             DT             P-IMP          GR             RHOB           4FACIES        3FACIES        
# ...
1574.9016      1456.7805      -999.25        -999.25        -999.25        -999.25        -999.25        0.4914         2504.0647      121.7221       5512.4475      81.257301      2.2013999      3              2              
1575.0540      1456.8965      -999.25        -999.25        -999.25        -999.25        -999.25        0.48789999     2545.0181      119.7634       5594.713       82.878197      2.1983         3              2              
1575.2064      1457.0124      -999.25        -999.25        -999.25        -999.25        -999.25        0.48559999     2606.155       116.9539       5727.547       84.014099      2.1977         3              2              
1575.3588      1457.1283      -999.25        -999.25        -999.25        -999.25        -999.25        0.48750001     2697.8013      112.9809       5933.0045      83.825996      2.1992         3              2              
1575.5112      1457.2442      -999.25        -999.25        -999.25        -999.25        -999.25        0.493          2791.8711      109.1741       6152.446       82.244698      2.2037         3              2              
1575.6636      1457.3601      -999.25        -999.25        -999.25        -999.25        -999.25        0.49779999     2855.1169      106.7557       6315.8045      80.414902      2.2121001      3              2              
1575.8160      1457.476       -999.25        -999.25        -999.25        -999.25        -999.25        0.50089997     2881.7219      105.7701       6410.9665      79.043098      2.2247         3              2              
1575.9684      1457.5918      -999.25        -999.25        -999.25        -999.25        -999.25        0.505          2866.7849      106.3212       6445.679       77.761803      2.2483999      3              2              
1576.1208      1457.7071      -999.25        -999.25        -999.25        -999.25        -999.25        0.51099998     2803.3052      108.7288       6421.531       76.338203      2.2907         3              2              
1576.2732      1457.8224      -999.25        -999.25        -999.25        -999.25        -999.25        0.51819998     2707.2805      112.5853       6326.1025      75.863701      2.3367         3              2              
1576.4256      1457.9377      -999.25        -999.25        -999.25        -999.25        -999.25        0.52689999     2598.0732      117.3177       6141.326       76.577904      2.3638         3              2              
1576.5780      1458.0529      -999.25        -999.25        -999.25        -999.25        -999.25        0.5363         2498.5552      121.9905       5922.825       77.702698      2.3705         3              2              
1576.7304      1458.1682      -999.25        -999.25        -999.25        -999.25        -999.25        0.54229999     2435.5806      125.1447       5773.7875      78.5401        2.3706001      3              2              
1576.8828      1458.2835      -999.25        -999.25        -999.25        -999.25        -999.25        0.5424         2414.2593      126.2499       5696.9275      79.199997      2.3597         3              2              
1577.0352      1458.3988      -999.25        -999.25        -999.25        -999.25        -999.25        0.5395         2430.6958      125.3962       5659.6315      79.8256        2.3283999      3              2              
1577.1876      1458.514       -999.25        -999.25        -999.25        -999.25        -999.25        0.53759998     2479.9199      122.9072       5672.5685      80             2.2873999      3              2              
1577.3400      1458.6293      -999.25        -999.25        -999.25        -999.25        -999.25        0.53680003     2547.1255      119.6643       5751.4095      79.819099      2.258          3              2              
1577.4924      1458.7446      -999.25        -999.25        -999.25        -999.25        -999.25        0.53560001     2610.3713      116.765        5861.85        79.680901      2.2456001      3              2              
1577.6448      1458.8599      -999.25        -999.25        -999.25        -999.25        -999.25        0.53570002     2648.3254      115.0916       5942.3125      79.846901      2.2438         3              2              
1577.7972      1458.9751      -999.25        -999.25        -999.25        -999.25        -999.25        0.5406         2645.3533      115.2209       5953.103       79.763         2.2503999      3              2              
1577.9496      1459.0904      -999.25        -999.25        -999.25        -999.25        -999.25        0.54930001     2610.387       116.7643       5916.181       79.540497      2.2663999      3              2              
1578.1020      1459.2057      -999.25        -999.25        -999.25        -999.25        -999.25        0.55720001     2557.7358      119.1679       5841.101       80.145798      2.2837         3              2              
1578.2544      1459.3209      -999.25        -999.25        -999.25        -999.25        -999.25        0.56190002     2492.5972      122.2821       5710.2905      81.431702      2.2908999      3              2              
1578.4068      1459.4362      -999.25        -999.25        -999.25        -999.25        -999.25        0.56150001     2427.314       125.5709       5554.1795      82.072502      2.2882         3              2              
1578.5592      1459.5522      -999.25        -999.25        -999.25        -999.25        -999.25        0.55229998     2386.0894      127.7404       5444.1015      81.862999      2.2816001      3              2              
1578.7116      1459.6701      -999.25        -999.25        -999.25        -999.25        -999.25        0.53299999     2382.1321      127.9526       5414.825       82.243103      2.2731001      3              2              
1578.8640      1459.788       -999.25        -999.25        -999.25        -999.25        -999.25        0.51169997     2429.6687      125.4492       5488.3785      83.167198      2.2588999      3              2              
1579.0164      1459.9059      -999.25        -999.25        -999.25        -999.25        -999.25        0.49540001     2521.8176      120.8652       5650.1325      82.5756        2.2405         3              2              
1579.1688      1460.0238      -999.25        -999.25        -999.25        -999.25        -999.25        0.4853         2613.238       116.6369       5811.0575      80.393501      2.2237         3              2              
1579.3212      1460.1417      -999.25        -999.25        -999.25        -999.25        -999.25        0.4804         2676.0576      113.8989       5926.1295      79.155296      2.2145         3              2              
1579.4736      1460.2595      -999.25        -999.25        -999.25        -999.25        -999.25        0.4835         2710.0342      112.4709       6009.501       79.790497      2.2175         3              2              
1579.6260      1460.3774      -999.25        -999.25        -999.25        -999.25        -999.25        0.49559999     2696.7246      113.026        6049.832       80.228996      2.2433999      3              2              
1579.7784      1460.4953      -999.25        -999.25        -999.25        -999.25        -999.25        0.51340002     2625.4949      116.0924       6026.8235      79.181297      2.2955         3              2              
1579.9308      1460.6132      -999.25        -999.25        -999.25        -999.25        -999.25        0.53140002     2529.1562      120.5145       5939.7235      78.134399      2.3485         3              2              
1580.0832      1460.7311      -999.25        -999.25        -999.25        -999.25        -999.25        0.54500002     2433.603       125.2464       5775.67        78.581703      2.3733         3              2              
1580.2356      1460.8489      -999.25        -999.25        -999.25        -999.25        -999.25        0.55229998     2355.7964      129.383        5611.978       80.064499      2.3822         3              2              
