~VERSION INFORMATION
VERS.                  2.0 : CWLS LOG ASCII STANDARD VERSION 2.0
WRAP.                  NO  : DATA IS NOT WRAPPED
~Well Information Section
#MNEM.UNIT          VALUE/NAME                 DESCRIPTION
#----------------------------------------------------------------------
STRT.m                 636.7272 : START DEPTH
STOP.m                1627.9368 : STOP DEPTH
STEP.m                   0.1524 : STEP
NULL.                -999.25 : NULL VALUE
COMP.                                             : COMPANY
WELL.    WDU-5                                    : WELL
FLD .                                             : FIELD
LOC .           242698.6,       2583682.1         : LOCATION
CNTY.                                             : COUNTY
STAT.                                             : STATE
CTRY.                                             : COUNTRY
SRVC.    Jason                                    : SERVICE
DATE.                                             : DATE
API .                                             : API
~Curve Information Section
#MNEM.UNIT          API CODE                   DESCRIPTION
#----------------------------------------------------------------------
DEPTH.m                          : * MD (TRACK/INDEX)
TIME .ms                         : TIME 
VPVS .none                       : VP/VS
VS   .m/s                        : S-VELOCITY
DTS  .us/ft                      : S-SONIC
S-IMP.g/cm^3*m/s                 : S-IMPEDANCE
RESIS.ohm*m                      : RESISTIVITY
NPHI .none                       : POROSITY NEUTRON
VP   .m/s                        : P-VELOCITY
DT   .us/ft                      : P-SONIC
P-IMP.g/cm^3*m/s                 : P-IMPEDANCE
GR   .gAPI                       : GAMMA RAY
RHOB .g/cm^3                     : DENSITY
4FACIES.none                       : 4FACIES
3FACIES.none                       : SANDSHALECOAL
~Parameter Information Section
#MNEM.UNIT          API CODE                   DESCRIPTION
#----------------------------------------------------------------------
XCRD .m                242698.600            : WELL POSITION X-COORD
YCRD .m                2583682.100           : WELL POSITION Y-COORD
DATUM.m                82.960                : WELL DATUM
~Other Information Section
#----------------------------------------------------------------------
# Data exported from Jason, (C) Jason, 2015
# Input file: 2_WELLS_RPM_Pred/WDU-5.wll
#----------------------------------------------------------------------
~A DEPTH        TIME           VPVS           VS             DTS            S-IMP          RESIS          NPHI           VP             DT             P-IMP          GR             RHOB           4FACIES        3FACIES        
# ...
1459.6872      1352.6028      2.2175258      1190.2656      256.07883      2720.7444      -999.25        0.53799999     2634.6841      115.6875       6024.205       81.024803      2.2865         3              2              
1459.8396      1352.7238      2.225071       1184.1113      257.40864      2725.0845      -999.25        0.54650003     2637.7346      115.5537       6071.2735      79.429802      2.3017         3              2              
1459.9920      1352.8448      2.2367936      1174.862       259.43918      2707.1139      -999.25        0.55269998     2630.3323      115.8789       6060.8115      78.205002      2.3042         3              2              
1460.1444      1352.9658      2.249863       1165.0618      261.61855      2681.2131      -999.25        0.55540001     2616.7605      116.4799       6022.2125      77.7286        2.3013999      3              2              
1460.2968      1353.0867      2.2482623      1163.9077      261.87662      2678.1367      -999.25        0.55400002     2614.1323      116.597        6016.164       77.939697      2.3013999      3              2              
1460.4492      1353.2077      2.2419491      1166.3536      261.32741      2682.8008      -999.25        0.54970002     2618.793       116.3895       6024.0095      78.041199      2.3003         3              2              
1460.6016      1353.3287      2.2386553      1167.7316      261.0189       2674.7137      -999.25        0.5424         2610.3667      116.7652       5981.1335      78.320999      2.2913         3              2              
1460.7540      1353.4497      2.2260657      1171.989       260.07233      2671.1917      -999.25        0.53460002     2608.4971      116.8489       5944.7645      79.108803      2.279          3              2              
1460.9064      1353.5706      2.2131158      1178.3033      258.67776      2677.136       -999.25        0.52880001     2608.6511      116.842        5925.812       79.7313        2.2716001      3              2              
1461.0588      1353.6916      2.2101222      1179.9329      258.31978      2682.2548      -999.25        0.5273         2610.2239      116.7716       5931.2115      79.290802      2.2723         3              2              
1461.2112      1353.8126      2.2166639      1178.5293      258.62765      2685.7298      -999.25        0.52990001     2611.031       116.7355       5950.5395      78.311096      2.279          3              2              
1461.3636      1353.9369      2.2247714      1177.3784      258.88024      2688.6762      -999.25        0.53509998     2619.4998      116.3581       5983.1995      77.958         2.2841001      3              2              
1461.5160      1354.0616      2.2361976      1176.3469      259.1073       2686.5253      -999.25        0.542          2631.2246      115.8396       6008.9275      78.015999      2.2837         3              2              
1461.6684      1354.1863      2.2531473      1170.0911      260.49535      2667.1231      -999.25        0.54979998     2641.4929      115.3893       6020.2265      77.735497      2.2791001      3              2              
1461.8208      1354.311       2.2802121      1154.3095      264.06437      2624.8948      -999.25        0.5582         2632.0676      115.8025       5985.058       77.202698      2.2738999      3              2              
1461.9732      1354.4357      2.3072391      1136.2507      268.2577       2577.765       -999.25        0.56599998     2619.4636      116.3597       5943.563       76.935501      2.269          3              2              
1462.1256      1354.5604      2.3275687      1121.3503      271.81969      2538.2081      -999.25        0.5711         2610.51        116.7588       5909.1505      76.648102      2.2636001      3              2              
1462.2780      1354.6851      2.3472279      1103.6007      276.19901      2490.85        -999.25        0.5722         2595.3633      117.4402       5856.6975      76.045799      2.2566001      3              2              
1462.4304      1354.8099      2.373671       1077.8821      282.80389      2423.3025      -999.25        0.57190001     2558.2124      119.1457       5750.8615      75.318703      2.248          3              2              
1462.5828      1354.9346      2.3987303      1053.0586      289.45833      2358.9844      -999.25        0.57260001     2522.4814      120.8334       5650.611       74.564903      2.2401001      3              2              
1462.7352      1355.0593      2.4103344      1039.1961      293.3065       2322.2021      -999.25        0.57349998     2501.8755      121.8286       5590.6915      74.2752        2.2346001      3              2              
1462.8876      1355.184       2.4025822      1034.6305      294.59809      2307.8044      -999.25        0.57230002     2484.7009      122.6707       5542.871       74.7985        2.2308         3              2              
1463.0400      1355.3087      2.3816446      1034.216       294.71601      2300.9382      -999.25        0.56910002     2462.9009      123.7565       5480.447       75.758797      2.2252         3              2              
1463.1924      1355.4334      2.3614457      1035.1217      294.45817      2293.7438      -999.25        0.56400001     2443.6431      124.7318       5415.113       76.434402      2.216          3              2              
1463.3448      1355.5581      2.3519383      1037.0966      293.89762      2287.4288      -999.25        0.5589         2438.1445      125.0131       5377.815       76.570602      2.2057         3              2              
1463.4972      1355.6829      2.3502678      1039.7355      293.15177      2282.5122      -999.25        0.55629998     2445.0154      124.6618       5367.7865      76.665604      2.1953999      3              2              
1463.6496      1355.8031      2.3616414      1039.4674      293.22728      2270.0267      -999.25        0.55720001     2456.3965      124.0842       5363.7875      76.547699      2.1836001      3              2              
1463.8020      1355.9226      2.3811873      1034.0611      294.7626       2242.8806      -999.25        0.55980003     2464.1553      123.6935       5344.9995      76.243103      2.1691001      3              2              
1463.9544      1356.0455      2.4057913      1024.4303      297.53526      2208.0831      -999.25        0.56129998     2464.9265      123.6548       5311.917       75.379799      2.155          3              2              
1464.1068      1356.1684      2.4242161      1013.2606      300.81587      2177.7845      -999.25        0.56059998     2457.0024      124.0536       5279.1155      74.083603      2.1486001      3              2              
1464.2592      1356.2912      2.4320677      1002.196       304.13655      2155.3385      -999.25        0.55830002     2436.7449      125.0849       5239.7325      72.391998      2.1503         3              2              
1464.4116      1356.4141      2.4193312      994.29851      306.54896      2138.4936      -999.25        0.55449998     2402.4685      126.8695       5169.872       70.760696      2.1518999      3              2              
1464.5640      1356.537       2.3944314      985.9246       309.15507      2112.5718      -999.25        0.54970002     2364.4092      128.9117       5066.2195      69.141602      2.1427         3              2              
1464.7164      1356.6599      2.409929       960.4388       317.42472      2041.8924      -999.25        0.5456         2335.2224      130.5229       4960.713       67.045403      2.1243         3              2              
1464.8688      1356.7828      2.5539484      909.01477      335.51829      1916.492       -999.25        0.54460001     2317.5818      131.5164       4876.6555      64.987         2.1042         3              2              
1465.0212      1356.9057      2.6385669      888.12227      343.19623      1843.6609      -999.25        0.5474         2310.6594      131.9104       4819.804       64.027901      2.0858999      3              2              
