~VERSION INFORMATION
VERS.                  2.0 : CWLS LOG ASCII STANDARD VERSION 2.0
WRAP.                  NO  : DATA IS NOT WRAPPED
~Well Information Section
#MNEM.UNIT          VALUE/NAME                 DESCRIPTION
#----------------------------------------------------------------------
STRT.m                 636.7272 : START DEPTH
STOP.m                1627.9368 : STOP DEPTH
STEP.m                   0.1524 : STEP
NULL.                -999.25 : NULL VALUE
COMP.                                             : COMPANY
WELL.    WDU-5                                    : WELL
FLD .                                             : FIELD
LOC .           242698.6,       2583682.1         : LOCATION
CNTY.                                             : COUNTY
STAT.                                             : STATE
CTRY.                                             : COUNTRY
SRVC.    Jason                                    : SERVICE
DATE.                                             : DATE
API .                                             : API
~Curve Information Section
#MNEM.UNIT          API CODE                   DESCRIPTION
#----------------------------------------------------------------------
DEPTH.m                          : * MD (TRACK/INDEX)
TIME .ms                         : TIME 
VPVS .none                       : VP/VS
VS   .m/s                        : S-VELOCITY
DTS  .us/ft                      : S-SONIC
S-IMP.g/cm^3*m/s                 : S-IMPEDANCE
RESIS.ohm*m                      : RESISTIVITY
NPHI .none                       : POROSITY NEUTRON
VP   .m/s                        : P-VELOCITY
DT   .us/ft                      : P-SONIC
P-IMP.g/cm^3*m/s                 : P-IMPEDANCE
GR   .gAPI                       : GAMMA RAY
RHOB .g/cm^3                     : DENSITY
4FACIES.none                       : 4FACIES
3FACIES.none                       : SANDSHALECOAL
~Parameter Information Section
#MNEM.UNIT          API CODE                   DESCRIPTION
#----------------------------------------------------------------------
XCRD .m                242698.600            : WELL POSITION X-COORD
YCRD .m                2583682.100           : WELL POSITION Y-COORD
DATUM.m                82.960                : WELL DATUM
~Other Information Section
#----------------------------------------------------------------------
# Data exported from Jason, (C) Jason, 2015
# Input file: 2_WELLS_RPM_Pred/WDU-5.wll
#----------------------------------------------------------------------
~A DEPTH        TIME           VPVS           VS             DTS            S-IMP          RESIS          NPHI           VP             DT             P-IMP          GR             RHOB           4FACIES        3FACIES        
# ...
1618.7928      1492.1981      -999.25        -999.25        -999.25        -999.25        -999.25        0.54769999     2386.8591      127.6992       5621.053       81.642403      2.355          3              2              
1618.9452      1492.3245      -999.25        -999.25        -999.25        -999.25        -999.25        0.55089998     2362.7556      129.00191      5487.5         81.420197      2.3225         3              2              
1619.0976      1492.4509      -999.25        -999.25        -999.25        -999.25        -999.25        0.55559999     2342.1597      130.13631      5393.2905      80.4561        2.3027         3              2              
1619.2500      1492.5774      -999.25        -999.25        -999.25        -999.25        -999.25        0.55900002     2319.5271      131.4061       5349.989       80.334396      2.3065         3              2              
1619.4024      1492.7038      -999.25        -999.25        -999.25        -999.25        -999.25        0.55860001     2300.5698      132.48891      5359.1775      81.428596      2.3295         3              2              
1619.5548      1492.8302      -999.25        -999.25        -999.25        -999.25        -999.25        0.55540001     2312.6016      131.79961      5439.0075      82.343102      2.3518999      3              2              
1619.7072      1492.9566      -999.25        -999.25        -999.25        -999.25        -999.25        0.55419999     2351.6304      129.6122       5558.784       81.962196      2.3638         3              2              
1619.8596      1493.0831      -999.25        -999.25        -999.25        -999.25        -999.25        0.55760002     2393.0601      127.3683       5673.9455      80.534698      2.371          3              2              
1620.0120      1493.2095      -999.25        -999.25        -999.25        -999.25        -999.25        0.56470001     2431.6807      125.3454       5798.3425      79.393097      2.3845         3              2              
1620.1644      1493.3359      -999.25        -999.25        -999.25        -999.25        -999.25        0.57279998     2459.1692      123.9443       5904.219       79.289299      2.4008999      3              2              
1620.3168      1493.4618      -999.25        -999.25        -999.25        -999.25        -999.25        0.57859999     2472.884       123.2569       5976.466       79.610298      2.4168         3              2              
1620.4692      1493.5877      -999.25        -999.25        -999.25        -999.25        -999.25        0.57959998     2500.48        121.8966       6059.4135      79.995003      2.4233         3              2              
1620.6216      1493.7137      -999.25        -999.25        -999.25        -999.25        -999.25        0.5783         2547.2915      119.6565       6146.3595      79.972504      2.4128999      3              2              
1620.7740      1493.8396      -999.25        -999.25        -999.25        -999.25        -999.25        0.57920003     2567.6125      118.7095       6148.6615      78.927902      2.3947         3              2              
1620.9264      1493.9655      -999.25        -999.25        -999.25        -999.25        -999.25        0.58319998     2557.8003      119.1649       6088.8435      77.256104      2.3805         3              2              
1621.0788      1494.0914      -999.25        -999.25        -999.25        -999.25        -999.25        0.58399999     2546.5532      119.6912       6010.1205      76.310303      2.3601001      3              2              
1621.2312      1494.2174      -999.25        -999.25        -999.25        -999.25        -999.25        0.58020002     2516.4211      121.1244       5845.1435      76.010696      2.3228         3              2              
1621.3836      1494.3433      -999.25        -999.25        -999.25        -999.25        -999.25        0.57639998     2465.0979      123.6462       5639.1585      75.024803      2.2876001      3              2              
1621.5360      1494.4692      -999.25        -999.25        -999.25        -999.25        -999.25        0.57889998     2411.8293      126.3771       5491.7355      74.247299      2.277          3              2              
1621.6884      1494.5952      -999.25        -999.25        -999.25        -999.25        -999.25        0.58090001     2362.0916      129.03819      5398.3235      75.519798      2.2853999      3              2              
1621.8408      1494.7211      -999.25        -999.25        -999.25        -999.25        -999.25        0.57450002     2323.5161      131.1805       5326.6605      78.1931        2.2925         3              2              
1621.9932      1494.847       -999.25        -999.25        -999.25        -999.25        -999.25        0.5625         2319.8569      131.38741      5319.432       80.090797      2.293          3              2              
1622.1456      1494.9729      -999.25        -999.25        -999.25        -999.25        -999.25        0.55540001     2347.3167      129.8504       5378.641       80.513397      2.2913999      3              2              
1622.2980      1495.0989      -999.25        -999.25        -999.25        -999.25        -999.25        0.55620003     2375.0876      128.33211      5425.65        80.673698      2.2843999      3              2              
1622.4504      1495.2248      -999.25        -999.25        -999.25        -999.25        -999.25        0.55589998     2387.8857      127.6443       5412.8595      81.041603      2.2668         3              2              
1622.6028      1495.3521      -999.25        -999.25        -999.25        -999.25        -999.25        0.54939997     2393.4829      127.3458       5381.986       81.146896      2.2486001      3              2              
1622.7552      1495.4823      -999.25        -999.25        -999.25        -999.25        -999.25        0.54299998     2393.7554      127.3313       5365.603       81.239304      2.2415         3              2              
1622.9076      1495.6124      -999.25        -999.25        -999.25        -999.25        -999.25        0.54259998     2384.4783      127.8267       5356.7305      81.884399      2.2465         3              2              
1623.0600      1495.7425      -999.25        -999.25        -999.25        -999.25        -999.25        0.5442         2376.5581      128.2527       5360.089       82.861801      2.2553999      3              2              
1623.2124      1495.8727      -999.25        -999.25        -999.25        -999.25        -999.25        0.54329997     2378.4275      128.1519       5384.046       83.267899      2.2637         3              2              
1623.3648      1496.0028      -999.25        -999.25        -999.25        -999.25        -999.25        0.54299998     2376.3044      128.2664       5392.5475      82.992699      2.2693         -999.25        -999.25        
1623.5172      1496.1329      -999.25        -999.25        -999.25        -999.25        -999.25        0.5474         2373.4658      128.4198       5392.0395      82.643501      2.2718         -999.25        -999.25        
1623.6696      1496.2631      -999.25        -999.25        -999.25        -999.25        -999.25        0.55409998     2372.45        128.47479      5382.8515      82.225601      2.2688999      -999.25        -999.25        
1623.8220      1496.3932      -999.25        -999.25        -999.25        -999.25        -999.25        0.55870003     2354.6042      129.4485       5326.586       81.936996      2.2622         -999.25        -999.25        
1623.9744      1496.5233      -999.25        -999.25        -999.25        -999.25        -999.25        0.5589         2323.293       131.1931       5243.672       81.967201      2.257          -999.25        -999.25        
1624.1268      1496.6535      -999.25        -999.25        -999.25        -999.25        -999.25        0.55599999     2296.5608      132.7202       5188.62        82.2145        2.2593         -999.25        -999.25        
