~VERSION INFORMATION
VERS.                  2.0 : CWLS LOG ASCII STANDARD VERSION 2.0
WRAP.                  NO  : DATA IS NOT WRAPPED
~Well Information Section
#MNEM.UNIT          VALUE/NAME                 DESCRIPTION
#----------------------------------------------------------------------
STRT.m                 636.7272 : START DEPTH
STOP.m                1627.9368 : STOP DEPTH
STEP.m                   0.1524 : STEP
NULL.                -999.25 : NULL VALUE
COMP.                                             : COMPANY
WELL.    WDU-5                                    : WELL
FLD .                                             : FIELD
LOC .           242698.6,       2583682.1         : LOCATION
CNTY.                                             : COUNTY
STAT.                                             : STATE
CTRY.                                             : COUNTRY
SRVC.    Jason                                    : SERVICE
DATE.                                             : DATE
API .                                             : API
~Curve Information Section
#MNEM.UNIT          API CODE                   DESCRIPTION
#----------------------------------------------------------------------
DEPTH.m                          : * MD (TRACK/INDEX)
TIME .ms                         : TIME 
VPVS .none                       : VP/VS
VS   .m/s                        : S-VELOCITY
DTS  .us/ft                      : S-SONIC
S-IMP.g/cm^3*m/s                 : S-IMPEDANCE
RESIS.ohm*m                      : RESISTIVITY
NPHI .none                       : POROSITY NEUTRON
VP   .m/s                        : P-VELOCITY
DT   .us/ft                      : P-SONIC
P-IMP.g/cm^3*m/s                 : P-IMPEDANCE
GR   .gAPI                       : GAMMA RAY
RHOB .g/cm^3                     : DENSITY
4FACIES.none                       : 4FACIES
3FACIES.none                       : SANDSHALECOAL
~Parameter Information Section
#MNEM.UNIT          API CODE                   DESCRIPTION
#----------------------------------------------------------------------
XCRD .m                242698.600            : WELL POSITION X-COORD
YCRD .m                2583682.100           : WELL POSITION Y-COORD
DATUM.m                82.960                : WELL DATUM
~Other Information Section
#----------------------------------------------------------------------
# Data exported from Jason, (C) Jason, 2015
# Input file: 2_WELLS_RPM_Pred/WDU-5.wll
#----------------------------------------------------------------------
~A DEPTH        TIME           VPVS           VS             DTS            S-IMP          RESIS          NPHI           VP             DT             P-IMP          GR             RHOB           4FACIES        3FACIES        
# ...
1366.4184      1274.5073      2.1329637      1224.5702      248.90555      2961.7971      -999.25        0.4869         2590.0242      117.6823       6271.7435      83.391998      2.4215         2              1              
1366.5708      1274.6134      2.1129275      1253.4179      243.22161      3124.9378      -999.25        0.46349999     2651.0249      114.9744       6607.6795      78.487         2.4925         2              1              
1366.7232      1274.7195      2.1147612      1312.5448      232.29678      3332.8471      -999.25        0.44159999     2763.1797      110.3077       7022.621       74.183601      2.5415         2              1              
1366.8756      1274.8256      2.0756769      1412.2369      216.05291      3640.0162      -999.25        0.42930001     2927.3325      104.1221       7544.9065      70.909897      2.5773999      2              1              
1367.0280      1274.9317      2.0509677      1526.0232      199.8552       3986.9127      -999.25        0.42680001     3134.0259      97.255102      8190.4625      69.345802      2.6133999      2              1              
1367.1804      1275.0377      2.0533497      1618.3949      188.40342      4220.4456      -999.25        0.43200001     3328.3574      91.576704      8705.319       70.522499      2.6155         2              1              
1367.3328      1275.1438      2.076574       1642.9375      185.52142      4208.1959      -999.25        0.4409         3453.6089      88.255503      8829.151       74.340797      2.5565         2              1              
1367.4852      1275.2499      2.1493543      1624.5433      187.63375      4011.6252      -999.25        0.4506         3481.7893      87.541196      8602.109       79.537399      2.4706001      2              1              
1367.6376      1275.356       2.1443656      1585.4255      192.2672       3815.8089      -999.25        0.46110001     3406.4468      89.4774        8185.6915      84.586601      2.403          2              1              
1367.7900      1275.4621      2.1225151      1522.1016      200.32273      3605.1888      -999.25        0.46900001     3241.7771      94.022503      7670.693       87.877098      2.3662         2              1              
1367.9424      1275.5682      2.1169031      1454.7992      209.55506      3430.3485      -999.25        0.46419999     3049.3691      99.955104      7190.412       88.112999      2.358          2              1              
1368.0948      1275.6742      2.0431502      1410.4447      216.11698      3352.6304      -999.25        0.4506         2893.9878      105.3218       6876.4045      85.4515        2.3761001      2              1              
1368.2472      1275.7803      2.0447849      1369.0121      222.67503      3293.6847      -999.25        0.44170001     2799.7593      108.8665       6732.581       82.0485        2.4047         2              1              
1368.3996      1275.8864      2.077875       1333.7065      228.54941      3259.6439      -999.25        0.44220001     2760.5596      110.4124       6746.8075      79.961098      2.444          2              1              
1368.5520      1275.9925      2.1023527      1319.663       230.96872      3278.4461      -999.25        0.43900001     2771.7583      109.9663       6891.1455      79.449203      2.4862         2              1              
1368.7044      1276.0986      2.1305017      1327.642       229.58783      3340.3274      -999.25        0.4316         2820.0708      108.0824       7101.502       79.553101      2.5182         2              1              
1368.8568      1276.2047      2.1235463      1357.8769      224.49135      3424.8868      -999.25        0.43220001     2882.2285      105.7515       7272.151       80.066002      2.5231001      2              1              
1369.0092      1276.3107      2.1027661      1389.3055      219.40091      3489.9638      -999.25        0.44060001     2927.7261      104.1081       7355.619       81.376297      2.5123999      2              1              
1369.1616      1276.4179      2.0989573      1406.5845      216.697        3504.6767      -999.25        0.4452         2953.7544      103.1907       7361.052       83.357597      2.4921001      2              1              
1369.3140      1276.5262      2.0980789      1409.1525      216.30028      3483.4906      -999.25        0.44170001     2964.2886      102.824        7322.682       84.375999      2.4703         2              1              
1369.4664      1276.6345      2.0982064      1396.9669      218.19471      3431.9734      -999.25        0.43900001     2934.8186      103.8565       7207.3275      83.143501      2.4558         2              1              
1369.6188      1276.7427      2.0894467      1366.4669      223.07858      3355.9602      -999.25        0.43979999     2856.4546      106.7057       7011.168       80.1698        2.4545         2              1              
1369.7712      1276.851       2.0907889      1339.4306      227.56679      3313.3601      -999.25        0.44069999     2792.4182      109.1527       6905.93        77.297699      2.4731001      2              1              
1369.9236      1276.9593      2.1042212      1337.0723      227.96196      3337.2865      -999.25        0.4443         2800.8323      108.8248       6998.4395      75.692398      2.4987         2              1              
1370.0760      1277.0676      2.1058949      1361.95        223.8238       3433.6578      -999.25        0.45370001     2865.4641      106.3702       7223.2625      75.341202      2.5208         2              1              
1370.2284      1277.1758      2.0940393      1399.1959      217.85665      3558.3223      -999.25        0.46619999     2936.3198      103.8034       7463.538       76.2416        2.5418         2              1              
1370.3808      1277.2841      2.0945941      1428.1664      213.42892      3667.0829      -999.25        0.4745         2989.5454      101.9553       7680.441       78.406097      2.5691001      2              1              
1370.5332      1277.3924      2.0929987      1442.3379      211.32442      3727.2406      -999.25        0.4779         3029.9355      100.5962       7829.3535      80.941597      2.584          2              1              
1370.6856      1277.5007      2.0982733      1430.2646      213.1207       3687.8114      -999.25        0.4774         3017.7412      101.0027       7777.6245      82.438499      2.5773         2              1              
1370.8380      1277.6089      2.1182643      1382.1379      220.58938      3546.7591      -999.25        0.47409999     2924.1702      104.2347       7500.789       81.873299      2.5651001      3              1              
1370.9904      1277.7172      2.1262205      1337.1009      227.97548      3428.3712      -999.25        0.47           2831.6479      107.6405       7258.3635      79.8256        2.5633         3              2              
1371.1428      1277.8255      2.1158638      1327.9815      229.5214       3395.5335      -999.25        0.46669999     2800.6648      108.8313       7172.783       77.802696      2.5611001      3              2              
1371.2952      1277.9338      2.0866605      1337.84        227.83512      3394.125       -999.25        0.47060001     2795.1482      109.0461       7091.5705      77.087799      2.5371001      3              2              
1371.4476      1278.042       2.0501205      1333.6657      228.54983      3326.7527      -999.25        0.48159999     2744.6699      111.0516       6843.56        77.067902      2.4933999      3              2              
1371.6000      1278.1503      2.064267       1303.2751      233.89915      3186.2534      -999.25        0.49849999     2689.9702      113.3098       6577.515       77.006897      2.4452         3              2              
1371.7524      1278.2586      2.1091068      1257.6212      242.41039      3014.3284      -999.25        0.51789999     2658.3845      114.6561       6371.8815      77.946602      2.3968999      3              2              
