~VERSION INFORMATION
VERS.                  2.0 : CWLS LOG ASCII STANDARD VERSION 2.0
WRAP.                  NO  : DATA IS NOT WRAPPED
~Well Information Section
#MNEM.UNIT          VALUE/NAME                 DESCRIPTION
#----------------------------------------------------------------------
STRT.m                 636.7272 : START DEPTH
STOP.m                1627.9368 : STOP DEPTH
STEP.m                   0.1524 : STEP
NULL.                -999.25 : NULL VALUE
COMP.                                             : COMPANY
WELL.    WDU-5                                    : WELL
FLD .                                             : FIELD
LOC .           242698.6,       2583682.1         : LOCATION
CNTY.                                             : COUNTY
STAT.                                             : STATE
CTRY.                                             : COUNTRY
SRVC.    Jason                                    : SERVICE
DATE.                                             : DATE
API .                                             : API
~Curve Information Section
#MNEM.UNIT          API CODE                   DESCRIPTION
#----------------------------------------------------------------------
DEPTH.m                          : * MD (TRACK/INDEX)
TIME .ms                         : TIME 
VPVS .none                       : VP/VS
VS   .m/s                        : S-VELOCITY
DTS  .us/ft                      : S-SONIC
S-IMP.g/cm^3*m/s                 : S-IMPEDANCE
RESIS.ohm*m                      : RESISTIVITY
NPHI .none                       : POROSITY NEUTRON
VP   .m/s                        : P-VELOCITY
DT   .us/ft                      : P-SONIC
P-IMP.g/cm^3*m/s                 : P-IMPEDANCE
GR   .gAPI                       : GAMMA RAY
RHOB .g/cm^3                     : DENSITY
4FACIES.none                       : 4FACIES
3FACIES.none                       : SANDSHALECOAL
~Parameter Information Section
#MNEM.UNIT          API CODE                   DESCRIPTION
#----------------------------------------------------------------------
XCRD .m                242698.600            : WELL POSITION X-COORD
YCRD .m                2583682.100           : WELL POSITION Y-COORD
DATUM.m                82.960                : WELL DATUM
~Other Information Section
#----------------------------------------------------------------------
# Data exported from Jason, (C) Jason, 2015
# Input file: 2_WELLS_RPM_Pred/WDU-5.wll
#----------------------------------------------------------------------
~A DEPTH        TIME           VPVS           VS             DTS            S-IMP          RESIS          NPHI           VP             DT             P-IMP          GR             RHOB           4FACIES        3FACIES        
# ...
1547.4696      1434.9144      -999.25        -999.25        -999.25        -999.25        -999.25        0.52920002     2409.0254      126.5242       6206.854       79.456902      2.5765         3              2              
1547.6220      1435.0358      -999.25        -999.25        -999.25        -999.25        -999.25        0.5388         2392.198       127.4142       6027.3825      79.364502      2.5196001      3              2              
1547.7744      1435.1571      -999.25        -999.25        -999.25        -999.25        -999.25        0.54320002     2382.9424      127.9091       5878.48        81.188499      2.4668999      3              2              
1547.9268      1435.2784      -999.25        -999.25        -999.25        -999.25        -999.25        0.54250002     2377.231       128.2164       5749.571       85.017899      2.4186001      3              2              
1548.0792      1435.3998      -999.25        -999.25        -999.25        -999.25        -999.25        0.53899997     2372.2722      128.48441      5634.1465      88.642403      2.375          3              2              
1548.2316      1435.5211      -999.25        -999.25        -999.25        -999.25        -999.25        0.53560001     2367.5681      128.7397       5541.53        90.789703      2.3406001      3              2              
1548.3840      1435.6424      -999.25        -999.25        -999.25        -999.25        -999.25        0.53240001     2363.9009      128.93941      5485.1955      92.259903      2.3203999      3              2              
1548.5364      1435.7638      -999.25        -999.25        -999.25        -999.25        -999.25        0.52960002     2359.4617      129.18201      5456.727       94.795799      2.3127         3              2              
1548.6888      1435.8851      -999.25        -999.25        -999.25        -999.25        -999.25        0.5266         2353.7771      129.494        5429.2225      97.741997      2.3066001      3              2              
1548.8412      1436.0065      -999.25        -999.25        -999.25        -999.25        -999.25        0.52380002     2355.4561      129.4017       5406.478       99.1744        2.2953         3              2              
1548.9936      1436.1278      -999.25        -999.25        -999.25        -999.25        -999.25        0.52160001     2366.7537      128.784        5396.198       98.634697      2.28           3              2              
1549.1460      1436.2489      -999.25        -999.25        -999.25        -999.25        -999.25        0.52359998     2387.6445      127.6572       5416.849       97.530502      2.2687         3              2              
1549.2984      1436.3688      -999.25        -999.25        -999.25        -999.25        -999.25        0.53100002     2421.4497      125.875        5486.037       97.046898      2.2656001      3              2              
1549.4508      1436.4888      -999.25        -999.25        -999.25        -999.25        -999.25        0.53899997     2464.5898      123.6717       5598.3155      96.548897      2.2715         3              2              
1549.6032      1436.6088      -999.25        -999.25        -999.25        -999.25        -999.25        0.54430002     2515.4802      121.1697       5755.419       95.120598      2.288          3              2              
1549.7556      1436.7288      -999.25        -999.25        -999.25        -999.25        -999.25        0.55059999     2584.24        117.9457       5992.594       93.119499      2.3188999      3              2              
1549.9080      1436.8488      -999.25        -999.25        -999.25        -999.25        -999.25        0.55919999     2673.5669      114.005        6317.371       91.762604      2.3628999      3              2              
1550.0604      1436.9688      -999.25        -999.25        -999.25        -999.25        -999.25        0.56330001     2757.2231      110.546        6654.5585      91.166397      2.4135         3              2              
1550.2128      1437.0888      -999.25        -999.25        -999.25        -999.25        -999.25        0.56029999     2796.7742      108.9827       6902.7185      90.563004      2.4681001      3              2              
1550.3652      1437.2088      -999.25        -999.25        -999.25        -999.25        -999.25        0.5539         2785.5916      109.4202       7036.6835      90.099197      2.5261001      3              2              
1550.5176      1437.3287      -999.25        -999.25        -999.25        -999.25        -999.25        0.54519999     2733.1714      111.5188       7065.248       90.525597      2.585          3              2              
1550.6700      1437.4487      -999.25        -999.25        -999.25        -999.25        -999.25        0.53350002     2652.4758      114.9115       6973.3595      91.577499      2.629          3              2              
1550.8224      1437.5687      -999.25        -999.25        -999.25        -999.25        -999.25        0.52270001     2553.7734      119.3528       6747.069       92.214897      2.642          3              2              
1550.9748      1437.6887      -999.25        -999.25        -999.25        -999.25        -999.25        0.5169         2455.3438      124.1374       6434.2285      92.089302      2.6205         3              2              
1551.1272      1437.8087      -999.25        -999.25        -999.25        -999.25        -999.25        0.51459998     2366.8198      128.7804       6101.6615      92.517601      2.578          3              2              
1551.2796      1437.9287      -999.25        -999.25        -999.25        -999.25        -999.25        0.51200002     2300.8342      132.47369      5799.2525      94.459503      2.5205         3              2              
1551.4320      1438.0487      -999.25        -999.25        -999.25        -999.25        -999.25        0.50950003     2266.5352      134.47839      5550.0645      97.440498      2.4487         3              2              
1551.5844      1438.1711      -999.25        -999.25        -999.25        -999.25        -999.25        0.5097         2261.5854      134.77271      5364.2545      100.3954       2.3718999      3              2              
1551.7368      1438.2988      -999.25        -999.25        -999.25        -999.25        -999.25        0.51370001     2267.1672      134.4409       5227.861       102.8683       2.3058999      3              2              
1551.8892      1438.4264      -999.25        -999.25        -999.25        -999.25        -999.25        0.51800001     2270.6448      134.235        5135.7445      105.4557       2.2618         3              2              
1552.0416      1438.5541      -999.25        -999.25        -999.25        -999.25        -999.25        0.51719999     2276.0298      133.9174       5097.8515      108.3561       2.2398         3              2              
1552.1940      1438.6817      -999.25        -999.25        -999.25        -999.25        -999.25        0.51380002     2287.3491      133.2547       5105.134       110.4523       2.2318999      3              2              
1552.3464      1438.8094      -999.25        -999.25        -999.25        -999.25        -999.25        0.51560003     2300.8425      132.47321      5122.5955      110.5355       2.2263999      3              2              
1552.4988      1438.9371      -999.25        -999.25        -999.25        -999.25        -999.25        0.52429998     2308.9072      132.0105       5129.699       109.0149       2.2217         3              2              
1552.6512      1439.0647      -999.25        -999.25        -999.25        -999.25        -999.25        0.5309         2309.1047      131.99921      5128.5215      106.8378       2.221          3              2              
1552.8036      1439.1924      -999.25        -999.25        -999.25        -999.25        -999.25        0.53179997     2303.2439      132.3351       5126.0995      104.0122       2.2256001      3              2              
